{
   "results" : [
      {
         "address_components" : [
            {
               "long_name" : "WQ9C+7V",
               "short_name" : "WQ9C+7V",
               "types" : [ "plus_code" ]
            },
            {
               "long_name" : "Etimesgut",
               "short_name" : "Etimesgut",
               "types" : [ "administrative_area_level_2", "political" ]
            },
            {
               "long_name" : "Ankara",
               "short_name" : "Ankara",
               "types" : [ "administrative_area_level_1", "political" ]
            },
            {
               "long_name" : "Turkey",
               "short_name" : "TR",
               "types" : [ "country", "political" ]
            }
         ],
         "formatted_address" : "WQ9C+7V Etimesgut/Ankara, Turkey",
         "geometry" : {
            "bounds" : {
               "northeast" : {
                  "lat" : 39.91825,
                  "lng" : 32.77225
               },
               "southwest" : {
                  "lat" : 39.918125,
                  "lng" : 32.772125
               }
            },
            "location" : {
               "lat" : 39.91818749999999,
               "lng" : 32.7721875
            },
            "location_type" : "GEOMETRIC_CENTER",
            "viewport" : {
               "northeast" : {
                  "lat" : 39.91953648029149,
                  "lng" : 32.7735364802915
               },
               "southwest" : {
                  "lat" : 39.91683851970849,
                  "lng" : 32.7708385197085
               }
            }
         },
         "place_id" : "GhIJSQwCK4f1Q0ARpHA9CtdiQEA",
         "plus_code" : {
            "compound_code" : "WQ9C+7V Etimesgut/Ankara, Turkey",
            "global_code" : "8GFJWQ9C+7V"
         },
         "types" : [ "plus_code" ]
      }
   ],
   "status" : "OK"
}
