{
   "plus_code" : {
      "compound_code" : "8453+G2V Medetli/Osmaneli/Bilecik, Turkey",
      "global_code" : "8GGG8453+G2V"
   },
   "results" : [
      {
         "address_components" : [
            {
               "long_name" : "8453+G2",
               "short_name" : "8453+G2",
               "types" : [ "plus_code" ]
            },
            {
               "long_name" : "Medetli",
               "short_name" : "Medetli",
               "types" : [ "administrative_area_level_3", "political" ]
            },
            {
               "long_name" : "Osmaneli",
               "short_name" : "Osmaneli",
               "types" : [ "administrative_area_level_2", "political" ]
            },
            {
               "long_name" : "Bilecik",
               "short_name" : "Bilecik",
               "types" : [ "administrative_area_level_1", "political" ]
            },
            {
               "long_name" : "Turkey",
               "short_name" : "TR",
               "types" : [ "country", "political" ]
            }
         ],
         "formatted_address" : "8453+G2 Medetli/Osmaneli/Bilecik, Turkey",
         "geometry" : {
            "bounds" : {
               "northeast" : {
                  "lat" : 40.308875,
                  "lng" : 30.102625
               },
               "southwest" : {
                  "lat" : 40.30875,
                  "lng" : 30.1025
               }
            },
            "location" : {
               "lat" : 40.3088544,
               "lng" : 30.1025391
            },
            "location_type" : "GEOMETRIC_CENTER",
            "viewport" : {
               "northeast" : {
                  "lat" : 40.3101614802915,
                  "lng" : 30.1039114802915
               },
               "southwest" : {
                  "lat" : 40.3074635197085,
                  "lng" : 30.10121351970851
               }
            }
         },
         "place_id" : "GhIJ5Jx9iognREARrw-hAEAaPkA",
         "plus_code" : {
            "compound_code" : "8453+G2 Medetli/Osmaneli/Bilecik, Turkey",
            "global_code" : "8GGG8453+G2"
         },
         "types" : [ "plus_code" ]
      },
      {
         "address_components" : [
            {
               "long_name" : "Unnamed Road",
               "short_name" : "Unnamed Road",
               "types" : [ "route" ]
            },
            {
               "long_name" : "Medetli",
               "short_name" : "Medetli",
               "types" : [ "administrative_area_level_3", "political" ]
            },
            {
               "long_name" : "Osmaneli",
               "short_name" : "Osmaneli",
               "types" : [ "administrative_area_level_2", "political" ]
            },
            {
               "long_name" : "Bilecik",
               "short_name" : "Bilecik",
               "types" : [ "administrative_area_level_1", "political" ]
            },
            {
               "long_name" : "Turkey",
               "short_name" : "TR",
               "types" : [ "country", "political" ]
            },
            {
               "long_name" : "11502",
               "short_name" : "11502",
               "types" : [ "postal_code" ]
            }
         ],
         "formatted_address" : "Unnamed Road, 11502 Medetli/Osmaneli/Bilecik, Turkey",
         "geometry" : {
            "bounds" : {
               "northeast" : {
                  "lat" : 40.306857,
                  "lng" : 30.1053405
               },
               "southwest" : {
                  "lat" : 40.3060604,
                  "lng" : 30.102539
               }
            },
            "location" : {
               "lat" : 40.3065241,
               "lng" : 30.1040068
            },
            "location_type" : "GEOMETRIC_CENTER",
            "viewport" : {
               "northeast" : {
                  "lat" : 40.3078076802915,
                  "lng" : 30.1053405
               },
               "southwest" : {
                  "lat" : 40.3051097197085,
                  "lng" : 30.102539
               }
            }
         },
         "place_id" : "ChIJYRm4YwJ_yxQRKjcNCFwAmk8",
         "types" : [ "route" ]
      },
      {
         "address_components" : [
            {
               "long_name" : "Medetli",
               "short_name" : "Medetli",
               "types" : [ "administrative_area_level_3", "political" ]
            },
            {
               "long_name" : "Osmaneli",
               "short_name" : "Osmaneli",
               "types" : [ "administrative_area_level_2", "political" ]
            },
            {
               "long_name" : "Bilecik",
               "short_name" : "Bilecik",
               "types" : [ "administrative_area_level_1", "political" ]
            },
            {
               "long_name" : "Turkey",
               "short_name" : "TR",
               "types" : [ "country", "political" ]
            }
         ],
         "formatted_address" : "Medetli/Osmaneli/Bilecik, Turkey",
         "geometry" : {
            "bounds" : {
               "northeast" : {
                  "lat" : 40.32314,
                  "lng" : 30.1568379
               },
               "southwest" : {
                  "lat" : 40.2804959,
                  "lng" : 30.0800591
               }
            },
            "location" : {
               "lat" : 40.2985162,
               "lng" : 30.1185102
            },
            "location_type" : "APPROXIMATE",
            "viewport" : {
               "northeast" : {
                  "lat" : 40.32314,
                  "lng" : 30.1568379
               },
               "southwest" : {
                  "lat" : 40.2804959,
                  "lng" : 30.0800591
               }
            }
         },
         "place_id" : "ChIJZWzjraR_yxQR1GWvzmvsrWw",
         "types" : [ "administrative_area_level_3", "political" ]
      },
      {
         "address_components" : [
            {
               "long_name" : "11502",
               "short_name" : "11502",
               "types" : [ "postal_code" ]
            },
            {
               "long_name" : "Bilecik",
               "short_name" : "Bilecik",
               "types" : [ "administrative_area_level_1", "political" ]
            },
            {
               "long_name" : "Turkey",
               "short_name" : "TR",
               "types" : [ "country", "political" ]
            }
         ],
         "formatted_address" : "11502 Bilecik, Turkey",
         "geometry" : {
            "bounds" : {
               "northeast" : {
                  "lat" : 40.324365,
                  "lng" : 30.169502
               },
               "southwest" : {
                  "lat" : 40.239371,
                  "lng" : 30.0539131
               }
            },
            "location" : {
               "lat" : 40.2922058,
               "lng" : 30.1242853
            },
            "location_type" : "APPROXIMATE",
            "viewport" : {
               "northeast" : {
                  "lat" : 40.324365,
                  "lng" : 30.169502
               },
               "southwest" : {
                  "lat" : 40.239371,
                  "lng" : 30.0539131
               }
            }
         },
         "place_id" : "ChIJkS0Q4nV_yxQR8-rqWt-XeLs",
         "types" : [ "postal_code" ]
      },
      {
         "address_components" : [
            {
               "long_name" : "Osmaneli",
               "short_name" : "Osmaneli",
               "types" : [ "administrative_area_level_2", "political" ]
            },
            {
               "long_name" : "Bilecik",
               "short_name" : "Bilecik",
               "types" : [ "administrative_area_level_1", "political" ]
            },
            {
               "long_name" : "Turkey",
               "short_name" : "TR",
               "types" : [ "country", "political" ]
            }
         ],
         "formatted_address" : "Osmaneli/Bilecik, Turkey",
         "geometry" : {
            "bounds" : {
               "northeast" : {
                  "lat" : 40.5166239,
                  "lng" : 30.218367
               },
               "southwest" : {
                  "lat" : 40.2804959,
                  "lng" : 29.817935
               }
            },
            "location" : {
               "lat" : 40.393685,
               "lng" : 29.9971769
            },
            "location_type" : "APPROXIMATE",
            "viewport" : {
               "northeast" : {
                  "lat" : 40.5166239,
                  "lng" : 30.218367
               },
               "southwest" : {
                  "lat" : 40.2804959,
                  "lng" : 29.817935
               }
            }
         },
         "place_id" : "ChIJ96gm7lJ6yxQRfoWzkKDKmKA",
         "types" : [ "administrative_area_level_2", "political" ]
      },
      {
         "address_components" : [
            {
               "long_name" : "Bilecik",
               "short_name" : "Bilecik",
               "types" : [ "administrative_area_level_1", "political" ]
            },
            {
               "long_name" : "Turkey",
               "short_name" : "TR",
               "types" : [ "country", "political" ]
            }
         ],
         "formatted_address" : "Bilecik, Turkey",
         "geometry" : {
            "bounds" : {
               "northeast" : {
                  "lat" : 40.521195,
                  "lng" : 30.64882489999999
               },
               "southwest" : {
                  "lat" : 39.648859,
                  "lng" : 29.7088961
               }
            },
            "location" : {
               "lat" : 40.0566555,
               "lng" : 30.0665236
            },
            "location_type" : "APPROXIMATE",
            "viewport" : {
               "northeast" : {
                  "lat" : 40.521195,
                  "lng" : 30.64882489999999
               },
               "southwest" : {
                  "lat" : 39.648859,
                  "lng" : 29.7088961
               }
            }
         },
         "place_id" : "ChIJn9GQNw2JyxQR9CrRkKFAt_0",
         "types" : [ "administrative_area_level_1", "political" ]
      },
      {
         "address_components" : [
            {
               "long_name" : "Turkey",
               "short_name" : "TR",
               "types" : [ "country", "political" ]
            }
         ],
         "formatted_address" : "Turkey",
         "geometry" : {
            "bounds" : {
               "northeast" : {
                  "lat" : 42.3666999,
                  "lng" : 44.8178449
               },
               "southwest" : {
                  "lat" : 35.808592,
                  "lng" : 25.5377
               }
            },
            "location" : {
               "lat" : 38.963745,
               "lng" : 35.243322
            },
            "location_type" : "APPROXIMATE",
            "viewport" : {
               "northeast" : {
                  "lat" : 42.3666999,
                  "lng" : 44.8178449
               },
               "southwest" : {
                  "lat" : 35.808592,
                  "lng" : 25.5377
               }
            }
         },
         "place_id" : "ChIJcSZPllwVsBQRKl9iKtTb2UA",
         "types" : [ "country", "political" ]
      }
   ],
   "status" : "OK"
}
