{
   "plus_code" : {
      "compound_code" : "RPMJ+2P2 Körfez/Kocaeli, Turkey",
      "global_code" : "8GGFRPMJ+2P2"
   },
   "results" : [
      {
         "address_components" : [
            {
               "long_name" : "RPMJ+2P",
               "short_name" : "RPMJ+2P",
               "types" : [ "plus_code" ]
            },
            {
               "long_name" : "Körfez",
               "short_name" : "Körfez",
               "types" : [ "administrative_area_level_2", "political" ]
            },
            {
               "long_name" : "Kocaeli",
               "short_name" : "Kocaeli",
               "types" : [ "administrative_area_level_1", "political" ]
            },
            {
               "long_name" : "Turkey",
               "short_name" : "TR",
               "types" : [ "country", "political" ]
            }
         ],
         "formatted_address" : "RPMJ+2P Körfez/Kocaeli, Turkey",
         "geometry" : {
            "bounds" : {
               "northeast" : {
                  "lat" : 40.832625,
                  "lng" : 29.731875
               },
               "southwest" : {
                  "lat" : 40.8325,
                  "lng" : 29.73175
               }
            },
            "location" : {
               "lat" : 40.832515,
               "lng" : 29.7317505
            },
            "location_type" : "GEOMETRIC_CENTER",
            "viewport" : {
               "northeast" : {
                  "lat" : 40.8339114802915,
                  "lng" : 29.7331614802915
               },
               "southwest" : {
                  "lat" : 40.8312135197085,
                  "lng" : 29.7304635197085
               }
            }
         },
         "place_id" : "GhIJ-Db92Y9qREAR6FQyAFS7PUA",
         "plus_code" : {
            "compound_code" : "RPMJ+2P Körfez/Kocaeli, Turkey",
            "global_code" : "8GGFRPMJ+2P"
         },
         "types" : [ "plus_code" ]
      },
      {
         "address_components" : [
            {
               "long_name" : "Unnamed Road",
               "short_name" : "Unnamed Road",
               "types" : [ "route" ]
            },
            {
               "long_name" : "Kalburcu",
               "short_name" : "Kalburcu",
               "types" : [ "administrative_area_level_4", "political" ]
            },
            {
               "long_name" : "Körfez",
               "short_name" : "Körfez",
               "types" : [ "administrative_area_level_2", "political" ]
            },
            {
               "long_name" : "Kocaeli",
               "short_name" : "Kocaeli",
               "types" : [ "administrative_area_level_1", "political" ]
            },
            {
               "long_name" : "Turkey",
               "short_name" : "TR",
               "types" : [ "country", "political" ]
            },
            {
               "long_name" : "41780",
               "short_name" : "41780",
               "types" : [ "postal_code" ]
            }
         ],
         "formatted_address" : "Kalburcu, Unnamed Road, 41780 Körfez/Kocaeli, Turkey",
         "geometry" : {
            "bounds" : {
               "northeast" : {
                  "lat" : 40.8341644,
                  "lng" : 29.7327879
               },
               "southwest" : {
                  "lat" : 40.8287092,
                  "lng" : 29.7319685
               }
            },
            "location" : {
               "lat" : 40.8314836,
               "lng" : 29.7327711
            },
            "location_type" : "GEOMETRIC_CENTER",
            "viewport" : {
               "northeast" : {
                  "lat" : 40.8341644,
                  "lng" : 29.7337271802915
               },
               "southwest" : {
                  "lat" : 40.8287092,
                  "lng" : 29.7310292197085
               }
            }
         },
         "place_id" : "ChIJOWKVDHA3yxQR1Co_7kVMmEU",
         "types" : [ "route" ]
      },
      {
         "address_components" : [
            {
               "long_name" : "Kalburcu",
               "short_name" : "Kalburcu",
               "types" : [ "administrative_area_level_4", "political" ]
            },
            {
               "long_name" : "Körfez",
               "short_name" : "Körfez",
               "types" : [ "administrative_area_level_2", "political" ]
            },
            {
               "long_name" : "Kocaeli",
               "short_name" : "Kocaeli",
               "types" : [ "administrative_area_level_1", "political" ]
            },
            {
               "long_name" : "Turkey",
               "short_name" : "TR",
               "types" : [ "country", "political" ]
            },
            {
               "long_name" : "41780",
               "short_name" : "41780",
               "types" : [ "postal_code" ]
            }
         ],
         "formatted_address" : "Kalburcu, 41780 Körfez/Kocaeli, Turkey",
         "geometry" : {
            "bounds" : {
               "northeast" : {
                  "lat" : 40.8524731,
                  "lng" : 29.7572351
               },
               "southwest" : {
                  "lat" : 40.81601,
                  "lng" : 29.68735
               }
            },
            "location" : {
               "lat" : 40.8281887,
               "lng" : 29.7252297
            },
            "location_type" : "APPROXIMATE",
            "viewport" : {
               "northeast" : {
                  "lat" : 40.8524731,
                  "lng" : 29.7572351
               },
               "southwest" : {
                  "lat" : 40.81601,
                  "lng" : 29.68735
               }
            }
         },
         "place_id" : "ChIJ692SHGw3yxQRIDmecxDLNzE",
         "types" : [ "administrative_area_level_4", "political" ]
      },
      {
         "address_components" : [
            {
               "long_name" : "41780",
               "short_name" : "41780",
               "types" : [ "postal_code" ]
            },
            {
               "long_name" : "Körfez",
               "short_name" : "Körfez",
               "types" : [ "administrative_area_level_2", "political" ]
            },
            {
               "long_name" : "Kocaeli",
               "short_name" : "Kocaeli",
               "types" : [ "administrative_area_level_1", "political" ]
            },
            {
               "long_name" : "Turkey",
               "short_name" : "TR",
               "types" : [ "country", "political" ]
            }
         ],
         "formatted_address" : "41780 Körfez/Kocaeli, Turkey",
         "geometry" : {
            "bounds" : {
               "northeast" : {
                  "lat" : 40.8524731,
                  "lng" : 29.7572351
               },
               "southwest" : {
                  "lat" : 40.81601,
                  "lng" : 29.68735
               }
            },
            "location" : {
               "lat" : 40.8281887,
               "lng" : 29.7252297
            },
            "location_type" : "APPROXIMATE",
            "viewport" : {
               "northeast" : {
                  "lat" : 40.8524731,
                  "lng" : 29.7572351
               },
               "southwest" : {
                  "lat" : 40.81601,
                  "lng" : 29.68735
               }
            }
         },
         "place_id" : "ChIJCeStYmg3yxQRpSShHxnjikY",
         "types" : [ "postal_code" ]
      },
      {
         "address_components" : [
            {
               "long_name" : "Körfez",
               "short_name" : "Körfez",
               "types" : [ "administrative_area_level_2", "political" ]
            },
            {
               "long_name" : "Kocaeli",
               "short_name" : "Kocaeli",
               "types" : [ "administrative_area_level_1", "political" ]
            },
            {
               "long_name" : "Turkey",
               "short_name" : "TR",
               "types" : [ "country", "political" ]
            }
         ],
         "formatted_address" : "Körfez/Kocaeli, Turkey",
         "geometry" : {
            "bounds" : {
               "northeast" : {
                  "lat" : 41.03414799999999,
                  "lng" : 29.8508729
               },
               "southwest" : {
                  "lat" : 40.7405581,
                  "lng" : 29.5859811
               }
            },
            "location" : {
               "lat" : 40.8676124,
               "lng" : 29.7657663
            },
            "location_type" : "APPROXIMATE",
            "viewport" : {
               "northeast" : {
                  "lat" : 41.03414799999999,
                  "lng" : 29.8508729
               },
               "southwest" : {
                  "lat" : 40.7405581,
                  "lng" : 29.5859811
               }
            }
         },
         "place_id" : "ChIJD1hntr42yxQRzXIqtXmZxQE",
         "types" : [ "administrative_area_level_2", "political" ]
      },
      {
         "address_components" : [
            {
               "long_name" : "Kocaeli",
               "short_name" : "Kocaeli",
               "types" : [ "administrative_area_level_1", "political" ]
            },
            {
               "long_name" : "Turkey",
               "short_name" : "TR",
               "types" : [ "country", "political" ]
            }
         ],
         "formatted_address" : "Kocaeli, Turkey",
         "geometry" : {
            "bounds" : {
               "northeast" : {
                  "lat" : 41.20976,
                  "lng" : 30.367743
               },
               "southwest" : {
                  "lat" : 40.524151,
                  "lng" : 29.3331261
               }
            },
            "location" : {
               "lat" : 40.8532704,
               "lng" : 29.8815203
            },
            "location_type" : "APPROXIMATE",
            "viewport" : {
               "northeast" : {
                  "lat" : 41.20976,
                  "lng" : 30.367743
               },
               "southwest" : {
                  "lat" : 40.524151,
                  "lng" : 29.3331261
               }
            }
         },
         "place_id" : "ChIJQ8zKb5QgyxQRWdhW642zLKg",
         "types" : [ "administrative_area_level_1", "political" ]
      },
      {
         "address_components" : [
            {
               "long_name" : "Turkey",
               "short_name" : "TR",
               "types" : [ "country", "political" ]
            }
         ],
         "formatted_address" : "Turkey",
         "geometry" : {
            "bounds" : {
               "northeast" : {
                  "lat" : 42.3666999,
                  "lng" : 44.8178449
               },
               "southwest" : {
                  "lat" : 35.808592,
                  "lng" : 25.5377
               }
            },
            "location" : {
               "lat" : 38.963745,
               "lng" : 35.243322
            },
            "location_type" : "APPROXIMATE",
            "viewport" : {
               "northeast" : {
                  "lat" : 42.3666999,
                  "lng" : 44.8178449
               },
               "southwest" : {
                  "lat" : 35.808592,
                  "lng" : 25.5377
               }
            }
         },
         "place_id" : "ChIJcSZPllwVsBQRKl9iKtTb2UA",
         "types" : [ "country", "political" ]
      }
   ],
   "status" : "OK"
}
