{
   "plus_code" : {
      "compound_code" : "WG47+37J Söğütlü/Sakarya, Turkey",
      "global_code" : "8GGGWG47+37J"
   },
   "results" : [
      {
         "address_components" : [
            {
               "long_name" : "WG47+37",
               "short_name" : "WG47+37",
               "types" : [ "plus_code" ]
            },
            {
               "long_name" : "Söğütlü",
               "short_name" : "Söğütlü",
               "types" : [ "administrative_area_level_2", "political" ]
            },
            {
               "long_name" : "Sakarya",
               "short_name" : "Sakarya",
               "types" : [ "administrative_area_level_1", "political" ]
            },
            {
               "long_name" : "Turkey",
               "short_name" : "TR",
               "types" : [ "country", "political" ]
            }
         ],
         "formatted_address" : "WG47+37 Söğütlü/Sakarya, Turkey",
         "geometry" : {
            "bounds" : {
               "northeast" : {
                  "lat" : 40.90525,
                  "lng" : 30.51325
               },
               "southwest" : {
                  "lat" : 40.905125,
                  "lng" : 30.513125
               }
            },
            "location" : {
               "lat" : 40.9052097,
               "lng" : 30.5131531
            },
            "location_type" : "GEOMETRIC_CENTER",
            "viewport" : {
               "northeast" : {
                  "lat" : 40.90653648029149,
                  "lng" : 30.5145364802915
               },
               "southwest" : {
                  "lat" : 40.9038385197085,
                  "lng" : 30.5118385197085
               }
            }
         },
         "place_id" : "GhIJ0MJU6d1zREARTVdmAF6DPkA",
         "plus_code" : {
            "compound_code" : "WG47+37 Söğütlü/Sakarya, Turkey",
            "global_code" : "8GGGWG47+37"
         },
         "types" : [ "plus_code" ]
      },
      {
         "address_components" : [
            {
               "long_name" : "Unnamed Road",
               "short_name" : "Unnamed Road",
               "types" : [ "route" ]
            },
            {
               "long_name" : "Hasanfakı",
               "short_name" : "Hasanfakı",
               "types" : [ "administrative_area_level_4", "political" ]
            },
            {
               "long_name" : "Söğütlü",
               "short_name" : "Söğütlü",
               "types" : [ "administrative_area_level_2", "political" ]
            },
            {
               "long_name" : "Sakarya",
               "short_name" : "Sakarya",
               "types" : [ "administrative_area_level_1", "political" ]
            },
            {
               "long_name" : "Turkey",
               "short_name" : "TR",
               "types" : [ "country", "political" ]
            },
            {
               "long_name" : "54160",
               "short_name" : "54160",
               "types" : [ "postal_code" ]
            }
         ],
         "formatted_address" : "Hasanfakı, Unnamed Road, 54160 Söğütlü/Sakarya, Turkey",
         "geometry" : {
            "bounds" : {
               "northeast" : {
                  "lat" : 40.9069914,
                  "lng" : 30.518801
               },
               "southwest" : {
                  "lat" : 40.90440299999999,
                  "lng" : 30.5140336
               }
            },
            "location" : {
               "lat" : 40.9057724,
               "lng" : 30.5163283
            },
            "location_type" : "GEOMETRIC_CENTER",
            "viewport" : {
               "northeast" : {
                  "lat" : 40.90704618029149,
                  "lng" : 30.518801
               },
               "southwest" : {
                  "lat" : 40.90434821970849,
                  "lng" : 30.5140336
               }
            }
         },
         "place_id" : "ChIJNV9XIsTvnUARJt1xhrIko5U",
         "types" : [ "route" ]
      },
      {
         "address_components" : [
            {
               "long_name" : "54160",
               "short_name" : "54160",
               "types" : [ "postal_code" ]
            },
            {
               "long_name" : "Söğütlü",
               "short_name" : "Söğütlü",
               "types" : [ "administrative_area_level_2", "political" ]
            },
            {
               "long_name" : "Sakarya",
               "short_name" : "Sakarya",
               "types" : [ "administrative_area_level_1", "political" ]
            },
            {
               "long_name" : "Turkey",
               "short_name" : "TR",
               "types" : [ "country", "political" ]
            }
         ],
         "formatted_address" : "54160 Söğütlü/Sakarya, Turkey",
         "geometry" : {
            "bounds" : {
               "northeast" : {
                  "lat" : 40.916851,
                  "lng" : 30.536467
               },
               "southwest" : {
                  "lat" : 40.884604,
                  "lng" : 30.4913441
               }
            },
            "location" : {
               "lat" : 40.891912,
               "lng" : 30.5095505
            },
            "location_type" : "APPROXIMATE",
            "viewport" : {
               "northeast" : {
                  "lat" : 40.916851,
                  "lng" : 30.536467
               },
               "southwest" : {
                  "lat" : 40.884604,
                  "lng" : 30.4913441
               }
            }
         },
         "place_id" : "ChIJa31l7NrvnUARhB28DREu0II",
         "types" : [ "postal_code" ]
      },
      {
         "address_components" : [
            {
               "long_name" : "Soğucak",
               "short_name" : "Soğucak",
               "types" : [ "administrative_area_level_4", "political" ]
            },
            {
               "long_name" : "Söğütlü",
               "short_name" : "Söğütlü",
               "types" : [ "administrative_area_level_2", "political" ]
            },
            {
               "long_name" : "Sakarya",
               "short_name" : "Sakarya",
               "types" : [ "administrative_area_level_1", "political" ]
            },
            {
               "long_name" : "Turkey",
               "short_name" : "TR",
               "types" : [ "country", "political" ]
            }
         ],
         "formatted_address" : "Soğucak, Söğütlü/Sakarya, Turkey",
         "geometry" : {
            "bounds" : {
               "northeast" : {
                  "lat" : 40.920355,
                  "lng" : 30.527521
               },
               "southwest" : {
                  "lat" : 40.881803,
                  "lng" : 30.4807141
               }
            },
            "location" : {
               "lat" : 40.8893514,
               "lng" : 30.5103935
            },
            "location_type" : "APPROXIMATE",
            "viewport" : {
               "northeast" : {
                  "lat" : 40.920355,
                  "lng" : 30.527521
               },
               "southwest" : {
                  "lat" : 40.881803,
                  "lng" : 30.4807141
               }
            }
         },
         "place_id" : "ChIJnVpNkNjvnUARItIILwNYJS8",
         "types" : [ "administrative_area_level_4", "political" ]
      },
      {
         "address_components" : [
            {
               "long_name" : "Söğütlü",
               "short_name" : "Söğütlü",
               "types" : [ "administrative_area_level_2", "political" ]
            },
            {
               "long_name" : "Sakarya",
               "short_name" : "Sakarya",
               "types" : [ "administrative_area_level_1", "political" ]
            },
            {
               "long_name" : "Turkey",
               "short_name" : "TR",
               "types" : [ "country", "political" ]
            }
         ],
         "formatted_address" : "Söğütlü/Sakarya, Turkey",
         "geometry" : {
            "bounds" : {
               "northeast" : {
                  "lat" : 40.9864351,
                  "lng" : 30.59765789999999
               },
               "southwest" : {
                  "lat" : 40.843753,
                  "lng" : 30.3643059
               }
            },
            "location" : {
               "lat" : 40.8840928,
               "lng" : 30.480791
            },
            "location_type" : "APPROXIMATE",
            "viewport" : {
               "northeast" : {
                  "lat" : 40.9864351,
                  "lng" : 30.59765789999999
               },
               "southwest" : {
                  "lat" : 40.843753,
                  "lng" : 30.3643059
               }
            }
         },
         "place_id" : "ChIJ97GaE1zlnUARJodVQFgxFmU",
         "types" : [ "administrative_area_level_2", "political" ]
      },
      {
         "address_components" : [
            {
               "long_name" : "Sakarya",
               "short_name" : "Sakarya",
               "types" : [ "administrative_area_level_1", "political" ]
            },
            {
               "long_name" : "Turkey",
               "short_name" : "TR",
               "types" : [ "country", "political" ]
            }
         ],
         "formatted_address" : "Sakarya, Turkey",
         "geometry" : {
            "bounds" : {
               "northeast" : {
                  "lat" : 41.17934,
                  "lng" : 31.013034
               },
               "southwest" : {
                  "lat" : 40.2880759,
                  "lng" : 29.928125
               }
            },
            "location" : {
               "lat" : 40.6939973,
               "lng" : 30.4357631
            },
            "location_type" : "APPROXIMATE",
            "viewport" : {
               "northeast" : {
                  "lat" : 41.17934,
                  "lng" : 31.013034
               },
               "southwest" : {
                  "lat" : 40.2880759,
                  "lng" : 29.928125
               }
            }
         },
         "place_id" : "ChIJGxhSlha1zBQRAZKNx6UHqOs",
         "types" : [ "administrative_area_level_1", "political" ]
      },
      {
         "address_components" : [
            {
               "long_name" : "Turkey",
               "short_name" : "TR",
               "types" : [ "country", "political" ]
            }
         ],
         "formatted_address" : "Turkey",
         "geometry" : {
            "bounds" : {
               "northeast" : {
                  "lat" : 42.3666999,
                  "lng" : 44.8178449
               },
               "southwest" : {
                  "lat" : 35.808592,
                  "lng" : 25.5377
               }
            },
            "location" : {
               "lat" : 38.963745,
               "lng" : 35.243322
            },
            "location_type" : "APPROXIMATE",
            "viewport" : {
               "northeast" : {
                  "lat" : 42.3666999,
                  "lng" : 44.8178449
               },
               "southwest" : {
                  "lat" : 35.808592,
                  "lng" : 25.5377
               }
            }
         },
         "place_id" : "ChIJcSZPllwVsBQRKl9iKtTb2UA",
         "types" : [ "country", "political" ]
      }
   ],
   "status" : "OK"
}
