{
   "plus_code" : {
      "compound_code" : "QG76+CRF Odunpazarı/Eskişehir, Turkey",
      "global_code" : "8GFGQG76+CRF"
   },
   "results" : [
      {
         "address_components" : [
            {
               "long_name" : "32",
               "short_name" : "32",
               "types" : [ "street_number" ]
            },
            {
               "long_name" : "Ege Sokak",
               "short_name" : "Ege Sk.",
               "types" : [ "route" ]
            },
            {
               "long_name" : "Akarbaşı",
               "short_name" : "Akarbaşı",
               "types" : [ "administrative_area_level_4", "political" ]
            },
            {
               "long_name" : "Odunpazarı",
               "short_name" : "Odunpazarı",
               "types" : [ "administrative_area_level_2", "political" ]
            },
            {
               "long_name" : "Eskişehir",
               "short_name" : "Eskişehir",
               "types" : [ "administrative_area_level_1", "political" ]
            },
            {
               "long_name" : "Turkey",
               "short_name" : "TR",
               "types" : [ "country", "political" ]
            },
            {
               "long_name" : "26020",
               "short_name" : "26020",
               "types" : [ "postal_code" ]
            }
         ],
         "formatted_address" : "Akarbaşı, Ege Sk. No:32, 26020 Odunpazarı/Eskişehir, Turkey",
         "geometry" : {
            "location" : {
               "lat" : 39.7635654,
               "lng" : 30.5120825
            },
            "location_type" : "ROOFTOP",
            "viewport" : {
               "northeast" : {
                  "lat" : 39.7649143802915,
                  "lng" : 30.5134314802915
               },
               "southwest" : {
                  "lat" : 39.7622164197085,
                  "lng" : 30.5107335197085
               }
            }
         },
         "place_id" : "ChIJAShIwBYWzBQRH-d8UJrYLm4",
         "plus_code" : {
            "compound_code" : "QG76+CR Odunpazarı/Eskişehir, Turkey",
            "global_code" : "8GFGQG76+CR"
         },
         "types" : [ "street_address" ]
      },
      {
         "address_components" : [
            {
               "long_name" : "1",
               "short_name" : "1",
               "types" : [ "street_number" ]
            },
            {
               "long_name" : "Başar Sokak",
               "short_name" : "Başar Sk.",
               "types" : [ "route" ]
            },
            {
               "long_name" : "Akarbaşı",
               "short_name" : "Akarbaşı",
               "types" : [ "administrative_area_level_4", "political" ]
            },
            {
               "long_name" : "Odunpazarı",
               "short_name" : "Odunpazarı",
               "types" : [ "administrative_area_level_2", "political" ]
            },
            {
               "long_name" : "Eskişehir",
               "short_name" : "Eskişehir",
               "types" : [ "administrative_area_level_1", "political" ]
            },
            {
               "long_name" : "Turkey",
               "short_name" : "TR",
               "types" : [ "country", "political" ]
            },
            {
               "long_name" : "26020",
               "short_name" : "26020",
               "types" : [ "postal_code" ]
            }
         ],
         "formatted_address" : "Akarbaşı, Başar Sk. No:1, 26020 Odunpazarı/Eskişehir, Turkey",
         "geometry" : {
            "location" : {
               "lat" : 39.7636527,
               "lng" : 30.5123601
            },
            "location_type" : "RANGE_INTERPOLATED",
            "viewport" : {
               "northeast" : {
                  "lat" : 39.7650016802915,
                  "lng" : 30.5137090802915
               },
               "southwest" : {
                  "lat" : 39.7623037197085,
                  "lng" : 30.5110111197085
               }
            }
         },
         "place_id" : "EkFBa2FyYmHFn8SxLCBCYcWfYXIgU2suIE5vOjEsIDI2MDIwIE9kdW5wYXphcsSxL0Vza2nFn2VoaXIsIFR1cmtleSIaEhgKFAoSCV-Ge8EWFswUEZJl96AiBmOsEAE",
         "types" : [ "street_address" ]
      },
      {
         "address_components" : [
            {
               "long_name" : "QG76+CR",
               "short_name" : "QG76+CR",
               "types" : [ "plus_code" ]
            },
            {
               "long_name" : "Odunpazarı",
               "short_name" : "Odunpazarı",
               "types" : [ "administrative_area_level_2", "political" ]
            },
            {
               "long_name" : "Eskişehir",
               "short_name" : "Eskişehir",
               "types" : [ "administrative_area_level_1", "political" ]
            },
            {
               "long_name" : "Turkey",
               "short_name" : "TR",
               "types" : [ "country", "political" ]
            }
         ],
         "formatted_address" : "QG76+CR Odunpazarı/Eskişehir, Turkey",
         "geometry" : {
            "bounds" : {
               "northeast" : {
                  "lat" : 39.763625,
                  "lng" : 30.512125
               },
               "southwest" : {
                  "lat" : 39.7635,
                  "lng" : 30.512
               }
            },
            "location" : {
               "lat" : 39.7635543,
               "lng" : 30.5120373
            },
            "location_type" : "GEOMETRIC_CENTER",
            "viewport" : {
               "northeast" : {
                  "lat" : 39.7649114802915,
                  "lng" : 30.5134114802915
               },
               "southwest" : {
                  "lat" : 39.7622135197085,
                  "lng" : 30.5107135197085
               }
            }
         },
         "place_id" : "GhIJLpy1JbzhQ0ARB9Vh4BSDPkA",
         "plus_code" : {
            "compound_code" : "QG76+CR Odunpazarı/Eskişehir, Turkey",
            "global_code" : "8GFGQG76+CR"
         },
         "types" : [ "plus_code" ]
      },
      {
         "address_components" : [
            {
               "long_name" : "32",
               "short_name" : "32",
               "types" : [ "street_number" ]
            },
            {
               "long_name" : "Ege Sokak",
               "short_name" : "Ege Sk.",
               "types" : [ "route" ]
            },
            {
               "long_name" : "Akarbaşı",
               "short_name" : "Akarbaşı",
               "types" : [ "administrative_area_level_4", "political" ]
            },
            {
               "long_name" : "Odunpazarı",
               "short_name" : "Odunpazarı",
               "types" : [ "administrative_area_level_2", "political" ]
            },
            {
               "long_name" : "Eskişehir",
               "short_name" : "Eskişehir",
               "types" : [ "administrative_area_level_1", "political" ]
            },
            {
               "long_name" : "Turkey",
               "short_name" : "TR",
               "types" : [ "country", "political" ]
            },
            {
               "long_name" : "26020",
               "short_name" : "26020",
               "types" : [ "postal_code" ]
            }
         ],
         "formatted_address" : "Akarbaşı, Ege Sk. No:32, 26020 Odunpazarı/Eskişehir, Turkey",
         "geometry" : {
            "bounds" : {
               "northeast" : {
                  "lat" : 39.7634057,
                  "lng" : 30.5123822
               },
               "southwest" : {
                  "lat" : 39.7633781,
                  "lng" : 30.511603
               }
            },
            "location" : {
               "lat" : 39.76339189999999,
               "lng" : 30.5119926
            },
            "location_type" : "GEOMETRIC_CENTER",
            "viewport" : {
               "northeast" : {
                  "lat" : 39.7647408802915,
                  "lng" : 30.5133415802915
               },
               "southwest" : {
                  "lat" : 39.7620429197085,
                  "lng" : 30.5106436197085
               }
            }
         },
         "place_id" : "ChIJaVHWlBYWzBQR4FJHGaRZKtQ",
         "types" : [ "route" ]
      },
      {
         "address_components" : [
            {
               "long_name" : "Akarbaşı",
               "short_name" : "Akarbaşı",
               "types" : [ "administrative_area_level_4", "political" ]
            },
            {
               "long_name" : "Odunpazarı",
               "short_name" : "Odunpazarı",
               "types" : [ "administrative_area_level_2", "political" ]
            },
            {
               "long_name" : "Eskişehir",
               "short_name" : "Eskişehir",
               "types" : [ "administrative_area_level_1", "political" ]
            },
            {
               "long_name" : "Turkey",
               "short_name" : "TR",
               "types" : [ "country", "political" ]
            },
            {
               "long_name" : "26010",
               "short_name" : "26010",
               "types" : [ "postal_code" ]
            }
         ],
         "formatted_address" : "Akarbaşı, 26010 Odunpazarı/Eskişehir, Turkey",
         "geometry" : {
            "bounds" : {
               "northeast" : {
                  "lat" : 39.7695401,
                  "lng" : 30.521777
               },
               "southwest" : {
                  "lat" : 39.759623,
                  "lng" : 30.4984921
               }
            },
            "location" : {
               "lat" : 39.765056,
               "lng" : 30.5149555
            },
            "location_type" : "APPROXIMATE",
            "viewport" : {
               "northeast" : {
                  "lat" : 39.7695401,
                  "lng" : 30.521777
               },
               "southwest" : {
                  "lat" : 39.759623,
                  "lng" : 30.4984921
               }
            }
         },
         "place_id" : "ChIJ04VCGhQWzBQRCAvKewH4nxY",
         "types" : [ "administrative_area_level_4", "political" ]
      },
      {
         "address_components" : [
            {
               "long_name" : "26010",
               "short_name" : "26010",
               "types" : [ "postal_code" ]
            },
            {
               "long_name" : "Akarbaşı",
               "short_name" : "Akarbaşı",
               "types" : [ "administrative_area_level_4", "political" ]
            },
            {
               "long_name" : "Odunpazarı",
               "short_name" : "Odunpazarı",
               "types" : [ "administrative_area_level_2", "political" ]
            },
            {
               "long_name" : "Eskişehir",
               "short_name" : "Eskişehir",
               "types" : [ "administrative_area_level_1", "political" ]
            },
            {
               "long_name" : "Turkey",
               "short_name" : "TR",
               "types" : [ "country", "political" ]
            }
         ],
         "formatted_address" : "Akarbaşı, 26010 Odunpazarı/Eskişehir, Turkey",
         "geometry" : {
            "bounds" : {
               "northeast" : {
                  "lat" : 39.7695401,
                  "lng" : 30.521777
               },
               "southwest" : {
                  "lat" : 39.759623,
                  "lng" : 30.4984921
               }
            },
            "location" : {
               "lat" : 39.765056,
               "lng" : 30.5149555
            },
            "location_type" : "APPROXIMATE",
            "viewport" : {
               "northeast" : {
                  "lat" : 39.7695401,
                  "lng" : 30.521777
               },
               "southwest" : {
                  "lat" : 39.759623,
                  "lng" : 30.4984921
               }
            }
         },
         "place_id" : "ChIJez0FGxQWzBQRdhIwrydv4qs",
         "types" : [ "postal_code" ]
      },
      {
         "address_components" : [
            {
               "long_name" : "Eskişehir",
               "short_name" : "Eskişehir",
               "types" : [ "locality", "political" ]
            },
            {
               "long_name" : "Eskişehir",
               "short_name" : "Eskişehir",
               "types" : [ "administrative_area_level_1", "political" ]
            },
            {
               "long_name" : "Turkey",
               "short_name" : "TR",
               "types" : [ "country", "political" ]
            }
         ],
         "formatted_address" : "Eskişehir, Turkey",
         "geometry" : {
            "bounds" : {
               "northeast" : {
                  "lat" : 39.828122,
                  "lng" : 30.680574
               },
               "southwest" : {
                  "lat" : 39.702564,
                  "lng" : 30.409055
               }
            },
            "location" : {
               "lat" : 39.7667061,
               "lng" : 30.52563109999999
            },
            "location_type" : "APPROXIMATE",
            "viewport" : {
               "northeast" : {
                  "lat" : 39.828122,
                  "lng" : 30.680574
               },
               "southwest" : {
                  "lat" : 39.702564,
                  "lng" : 30.409055
               }
            }
         },
         "place_id" : "ChIJXw4MIgg-zBQRCJoEOFk5ibw",
         "types" : [ "locality", "political" ]
      },
      {
         "address_components" : [
            {
               "long_name" : "Odunpazarı",
               "short_name" : "Odunpazarı",
               "types" : [ "administrative_area_level_2", "political" ]
            },
            {
               "long_name" : "Eskişehir",
               "short_name" : "Eskişehir",
               "types" : [ "administrative_area_level_1", "political" ]
            },
            {
               "long_name" : "Turkey",
               "short_name" : "TR",
               "types" : [ "country", "political" ]
            }
         ],
         "formatted_address" : "Odunpazarı/Eskişehir, Turkey",
         "geometry" : {
            "bounds" : {
               "northeast" : {
                  "lat" : 39.8579331,
                  "lng" : 30.8872509
               },
               "southwest" : {
                  "lat" : 39.4395509,
                  "lng" : 30.2223909
               }
            },
            "location" : {
               "lat" : 39.64829719999999,
               "lng" : 30.5739579
            },
            "location_type" : "APPROXIMATE",
            "viewport" : {
               "northeast" : {
                  "lat" : 39.8579331,
                  "lng" : 30.8872509
               },
               "southwest" : {
                  "lat" : 39.4395509,
                  "lng" : 30.2223909
               }
            }
         },
         "place_id" : "ChIJo0vBmz4izBQRPJU1OOJuX_Q",
         "types" : [ "administrative_area_level_2", "political" ]
      },
      {
         "address_components" : [
            {
               "long_name" : "Eskişehir",
               "short_name" : "Eskişehir",
               "types" : [ "administrative_area_level_1", "political" ]
            },
            {
               "long_name" : "Turkey",
               "short_name" : "TR",
               "types" : [ "country", "political" ]
            }
         ],
         "formatted_address" : "Eskişehir, Turkey",
         "geometry" : {
            "bounds" : {
               "northeast" : {
                  "lat" : 40.158349,
                  "lng" : 32.009396
               },
               "southwest" : {
                  "lat" : 39.029024,
                  "lng" : 29.97498299999999
               }
            },
            "location" : {
               "lat" : 39.6329657,
               "lng" : 31.2626366
            },
            "location_type" : "APPROXIMATE",
            "viewport" : {
               "northeast" : {
                  "lat" : 40.158349,
                  "lng" : 32.009396
               },
               "southwest" : {
                  "lat" : 39.029024,
                  "lng" : 29.97498299999999
               }
            }
         },
         "place_id" : "ChIJF44c-PoVzBQRTydTJ7V7mtg",
         "types" : [ "administrative_area_level_1", "political" ]
      },
      {
         "address_components" : [
            {
               "long_name" : "Turkey",
               "short_name" : "TR",
               "types" : [ "country", "political" ]
            }
         ],
         "formatted_address" : "Turkey",
         "geometry" : {
            "bounds" : {
               "northeast" : {
                  "lat" : 42.3666999,
                  "lng" : 44.8178449
               },
               "southwest" : {
                  "lat" : 35.808592,
                  "lng" : 25.5377
               }
            },
            "location" : {
               "lat" : 38.963745,
               "lng" : 35.243322
            },
            "location_type" : "APPROXIMATE",
            "viewport" : {
               "northeast" : {
                  "lat" : 42.3666999,
                  "lng" : 44.8178449
               },
               "southwest" : {
                  "lat" : 35.808592,
                  "lng" : 25.5377
               }
            }
         },
         "place_id" : "ChIJcSZPllwVsBQRKl9iKtTb2UA",
         "types" : [ "country", "political" ]
      }
   ],
   "status" : "OK"
}
