{
   "plus_code" : {
      "compound_code" : "2MHW+CXV Şile/İstanbul, Turkey",
      "global_code" : "8GHF2MHW+CXV"
   },
   "results" : [
      {
         "address_components" : [
            {
               "long_name" : "2MHW+CX",
               "short_name" : "2MHW+CX",
               "types" : [ "plus_code" ]
            },
            {
               "long_name" : "Şile",
               "short_name" : "Şile",
               "types" : [ "administrative_area_level_2", "political" ]
            },
            {
               "long_name" : "İstanbul",
               "short_name" : "İstanbul",
               "types" : [ "administrative_area_level_1", "political" ]
            },
            {
               "long_name" : "Turkey",
               "short_name" : "TR",
               "types" : [ "country", "political" ]
            }
         ],
         "formatted_address" : "2MHW+CX Şile/İstanbul, Turkey",
         "geometry" : {
            "bounds" : {
               "northeast" : {
                  "lat" : 41.028625,
                  "lng" : 29.6975
               },
               "southwest" : {
                  "lat" : 41.0285,
                  "lng" : 29.697375
               }
            },
            "location" : {
               "lat" : 41.0286074,
               "lng" : 29.6974182
            },
            "location_type" : "GEOMETRIC_CENTER",
            "viewport" : {
               "northeast" : {
                  "lat" : 41.0299114802915,
                  "lng" : 29.6987864802915
               },
               "southwest" : {
                  "lat" : 41.0272135197085,
                  "lng" : 29.6960885197085
               }
            }
         },
         "place_id" : "GhIJOLZDaKmDREARnKLI_4myPUA",
         "plus_code" : {
            "compound_code" : "2MHW+CX Şile/İstanbul, Turkey",
            "global_code" : "8GHF2MHW+CX"
         },
         "types" : [ "plus_code" ]
      },
      {
         "address_components" : [
            {
               "long_name" : "Unnamed Road",
               "short_name" : "Unnamed Road",
               "types" : [ "route" ]
            },
            {
               "long_name" : "Turkey",
               "short_name" : "TR",
               "types" : [ "country", "political" ]
            }
         ],
         "formatted_address" : "Unnamed Road, Turkey",
         "geometry" : {
            "bounds" : {
               "northeast" : {
                  "lat" : 41.0283394,
                  "lng" : 29.6996533
               },
               "southwest" : {
                  "lat" : 41.0229498,
                  "lng" : 29.696123
               }
            },
            "location" : {
               "lat" : 41.02580349999999,
               "lng" : 29.6972924
            },
            "location_type" : "GEOMETRIC_CENTER",
            "viewport" : {
               "northeast" : {
                  "lat" : 41.0283394,
                  "lng" : 29.6996533
               },
               "southwest" : {
                  "lat" : 41.0229498,
                  "lng" : 29.696123
               }
            }
         },
         "place_id" : "ChIJKQ_ecvomnkARhhz8vmoR4_o",
         "types" : [ "route" ]
      },
      {
         "address_components" : [
            {
               "long_name" : "34983",
               "short_name" : "34983",
               "types" : [ "postal_code" ]
            },
            {
               "long_name" : "Çengilli",
               "short_name" : "Çengilli",
               "types" : [ "administrative_area_level_4", "political" ]
            },
            {
               "long_name" : "Şile",
               "short_name" : "Şile",
               "types" : [ "administrative_area_level_2", "political" ]
            },
            {
               "long_name" : "İstanbul",
               "short_name" : "İstanbul",
               "types" : [ "administrative_area_level_1", "political" ]
            },
            {
               "long_name" : "Turkey",
               "short_name" : "TR",
               "types" : [ "country", "political" ]
            }
         ],
         "formatted_address" : "Çengilli, 34983 Şile/İstanbul, Turkey",
         "geometry" : {
            "bounds" : {
               "northeast" : {
                  "lat" : 41.030193,
                  "lng" : 29.718066
               },
               "southwest" : {
                  "lat" : 40.9874569,
                  "lng" : 29.657186
               }
            },
            "location" : {
               "lat" : 41.0052697,
               "lng" : 29.6873626
            },
            "location_type" : "APPROXIMATE",
            "viewport" : {
               "northeast" : {
                  "lat" : 41.030193,
                  "lng" : 29.718066
               },
               "southwest" : {
                  "lat" : 40.9874569,
                  "lng" : 29.657186
               }
            }
         },
         "place_id" : "ChIJgc94ihAnnkARDU_p5aDFti0",
         "types" : [ "postal_code" ]
      },
      {
         "address_components" : [
            {
               "long_name" : "Çengilli",
               "short_name" : "Çengilli",
               "types" : [ "administrative_area_level_4", "political" ]
            },
            {
               "long_name" : "Şile",
               "short_name" : "Şile",
               "types" : [ "administrative_area_level_2", "political" ]
            },
            {
               "long_name" : "İstanbul",
               "short_name" : "İstanbul",
               "types" : [ "administrative_area_level_1", "political" ]
            },
            {
               "long_name" : "Turkey",
               "short_name" : "TR",
               "types" : [ "country", "political" ]
            }
         ],
         "formatted_address" : "Çengilli, Şile/İstanbul, Turkey",
         "geometry" : {
            "bounds" : {
               "northeast" : {
                  "lat" : 41.030193,
                  "lng" : 29.71954209999999
               },
               "southwest" : {
                  "lat" : 40.9874569,
                  "lng" : 29.657186
               }
            },
            "location" : {
               "lat" : 41.0052697,
               "lng" : 29.6873626
            },
            "location_type" : "APPROXIMATE",
            "viewport" : {
               "northeast" : {
                  "lat" : 41.030193,
                  "lng" : 29.71954209999999
               },
               "southwest" : {
                  "lat" : 40.9874569,
                  "lng" : 29.657186
               }
            }
         },
         "place_id" : "ChIJjRlfS3MnnkAR_k4UZtbkC8w",
         "types" : [ "administrative_area_level_4", "political" ]
      },
      {
         "address_components" : [
            {
               "long_name" : "Şile",
               "short_name" : "Şile",
               "types" : [ "administrative_area_level_2", "political" ]
            },
            {
               "long_name" : "İstanbul",
               "short_name" : "İstanbul",
               "types" : [ "administrative_area_level_1", "political" ]
            },
            {
               "long_name" : "Turkey",
               "short_name" : "TR",
               "types" : [ "country", "political" ]
            }
         ],
         "formatted_address" : "Şile/İstanbul, Turkey",
         "geometry" : {
            "bounds" : {
               "northeast" : {
                  "lat" : 41.216688,
                  "lng" : 29.915705
               },
               "southwest" : {
                  "lat" : 40.9613769,
                  "lng" : 29.3200651
               }
            },
            "location" : {
               "lat" : 41.1027299,
               "lng" : 29.6534184
            },
            "location_type" : "APPROXIMATE",
            "viewport" : {
               "northeast" : {
                  "lat" : 41.216688,
                  "lng" : 29.915705
               },
               "southwest" : {
                  "lat" : 40.9613769,
                  "lng" : 29.3200651
               }
            }
         },
         "place_id" : "ChIJ9UhbjOEunkARWwD_Tc7Np-w",
         "types" : [ "administrative_area_level_2", "political" ]
      },
      {
         "address_components" : [
            {
               "long_name" : "İstanbul",
               "short_name" : "İstanbul",
               "types" : [ "administrative_area_level_1", "political" ]
            },
            {
               "long_name" : "Turkey",
               "short_name" : "TR",
               "types" : [ "country", "political" ]
            }
         ],
         "formatted_address" : "İstanbul, Turkey",
         "geometry" : {
            "bounds" : {
               "northeast" : {
                  "lat" : 41.58461,
                  "lng" : 29.915705
               },
               "southwest" : {
                  "lat" : 40.8026889,
                  "lng" : 27.971373
               }
            },
            "location" : {
               "lat" : 41.1634302,
               "lng" : 28.7664408
            },
            "location_type" : "APPROXIMATE",
            "viewport" : {
               "northeast" : {
                  "lat" : 41.58461,
                  "lng" : 29.915705
               },
               "southwest" : {
                  "lat" : 40.8026889,
                  "lng" : 27.971373
               }
            }
         },
         "place_id" : "ChIJexVgWlG2yhQR6B1akfSarCI",
         "types" : [ "administrative_area_level_1", "political" ]
      },
      {
         "address_components" : [
            {
               "long_name" : "Turkey",
               "short_name" : "TR",
               "types" : [ "country", "political" ]
            }
         ],
         "formatted_address" : "Turkey",
         "geometry" : {
            "bounds" : {
               "northeast" : {
                  "lat" : 42.3666999,
                  "lng" : 44.8178449
               },
               "southwest" : {
                  "lat" : 35.808592,
                  "lng" : 25.5377
               }
            },
            "location" : {
               "lat" : 38.963745,
               "lng" : 35.243322
            },
            "location_type" : "APPROXIMATE",
            "viewport" : {
               "northeast" : {
                  "lat" : 42.3666999,
                  "lng" : 44.8178449
               },
               "southwest" : {
                  "lat" : 35.808592,
                  "lng" : 25.5377
               }
            }
         },
         "place_id" : "ChIJcSZPllwVsBQRKl9iKtTb2UA",
         "types" : [ "country", "political" ]
      }
   ],
   "status" : "OK"
}
