{
   "plus_code" : {
      "compound_code" : "QRP9+P86 Derince/Kocaeli, Turkey",
      "global_code" : "8GGFQRP9+P86"
   },
   "results" : [
      {
         "address_components" : [
            {
               "long_name" : "QRP9+P8",
               "short_name" : "QRP9+P8",
               "types" : [ "plus_code" ]
            },
            {
               "long_name" : "Derince",
               "short_name" : "Derince",
               "types" : [ "administrative_area_level_2", "political" ]
            },
            {
               "long_name" : "Kocaeli",
               "short_name" : "Kocaeli",
               "types" : [ "administrative_area_level_1", "political" ]
            },
            {
               "long_name" : "Turkey",
               "short_name" : "TR",
               "types" : [ "country", "political" ]
            }
         ],
         "formatted_address" : "QRP9+P8 Derince/Kocaeli, Turkey",
         "geometry" : {
            "bounds" : {
               "northeast" : {
                  "lat" : 40.78687499999999,
                  "lng" : 29.818375
               },
               "southwest" : {
                  "lat" : 40.78675,
                  "lng" : 29.81825
               }
            },
            "location" : {
               "lat" : 40.7867804,
               "lng" : 29.8182678
            },
            "location_type" : "GEOMETRIC_CENTER",
            "viewport" : {
               "northeast" : {
                  "lat" : 40.7881614802915,
                  "lng" : 29.8196614802915
               },
               "southwest" : {
                  "lat" : 40.7854635197085,
                  "lng" : 29.8169635197085
               }
            }
         },
         "place_id" : "GhIJIZFbOLVkREARr16g_3nRPUA",
         "plus_code" : {
            "compound_code" : "QRP9+P8 Derince/Kocaeli, Turkey",
            "global_code" : "8GGFQRP9+P8"
         },
         "types" : [ "plus_code" ]
      },
      {
         "address_components" : [
            {
               "long_name" : "36-42",
               "short_name" : "36-42",
               "types" : [ "street_number" ]
            },
            {
               "long_name" : "Akıncılar Sokak",
               "short_name" : "Akıncılar Sk.",
               "types" : [ "route" ]
            },
            {
               "long_name" : "Fatih Sultan",
               "short_name" : "Fatih Sultan",
               "types" : [ "administrative_area_level_4", "political" ]
            },
            {
               "long_name" : "Derince",
               "short_name" : "Derince",
               "types" : [ "administrative_area_level_2", "political" ]
            },
            {
               "long_name" : "Kocaeli",
               "short_name" : "Kocaeli",
               "types" : [ "administrative_area_level_1", "political" ]
            },
            {
               "long_name" : "Turkey",
               "short_name" : "TR",
               "types" : [ "country", "political" ]
            },
            {
               "long_name" : "41900",
               "short_name" : "41900",
               "types" : [ "postal_code" ]
            }
         ],
         "formatted_address" : "Fatih Sultan, Akıncılar Sk. 36-42, 41900 Derince/Kocaeli, Turkey",
         "geometry" : {
            "bounds" : {
               "northeast" : {
                  "lat" : 40.7882076,
                  "lng" : 29.8228149
               },
               "southwest" : {
                  "lat" : 40.7823789,
                  "lng" : 29.8199383
               }
            },
            "location" : {
               "lat" : 40.7854057,
               "lng" : 29.8210044
            },
            "location_type" : "GEOMETRIC_CENTER",
            "viewport" : {
               "northeast" : {
                  "lat" : 40.7882076,
                  "lng" : 29.8228149
               },
               "southwest" : {
                  "lat" : 40.7823789,
                  "lng" : 29.8199383
               }
            }
         },
         "place_id" : "ChIJUxEmi9pHyxQR2oNXWL785_I",
         "types" : [ "route" ]
      },
      {
         "address_components" : [
            {
               "long_name" : "61",
               "short_name" : "61",
               "types" : [ "street_number" ]
            },
            {
               "long_name" : "Akıncılar Sokak",
               "short_name" : "Akıncılar Sk.",
               "types" : [ "route" ]
            },
            {
               "long_name" : "Fatih Sultan",
               "short_name" : "Fatih Sultan",
               "types" : [ "administrative_area_level_4", "political" ]
            },
            {
               "long_name" : "Derince",
               "short_name" : "Derince",
               "types" : [ "administrative_area_level_2", "political" ]
            },
            {
               "long_name" : "Kocaeli",
               "short_name" : "Kocaeli",
               "types" : [ "administrative_area_level_1", "political" ]
            },
            {
               "long_name" : "Turkey",
               "short_name" : "TR",
               "types" : [ "country", "political" ]
            },
            {
               "long_name" : "41900",
               "short_name" : "41900",
               "types" : [ "postal_code" ]
            }
         ],
         "formatted_address" : "Fatih Sultan, Akıncılar Sk. No:61, 41900 Derince/Kocaeli, Turkey",
         "geometry" : {
            "location" : {
               "lat" : 40.7836244,
               "lng" : 29.8199424
            },
            "location_type" : "RANGE_INTERPOLATED",
            "viewport" : {
               "northeast" : {
                  "lat" : 40.7849733802915,
                  "lng" : 29.8212913802915
               },
               "southwest" : {
                  "lat" : 40.7822754197085,
                  "lng" : 29.8185934197085
               }
            }
         },
         "place_id" : "EkJGYXRpaCBTdWx0YW4sIEFrxLFuY8SxbGFyIFNrLiBObzo2MSwgNDE5MDAgRGVyaW5jZS9Lb2NhZWxpLCBUdXJrZXkiGhIYChQKEglTESaL2kfLFBHbg1dYvvzn8hA9",
         "types" : [ "street_address" ]
      },
      {
         "address_components" : [
            {
               "long_name" : "Toylar",
               "short_name" : "Toylar",
               "types" : [ "administrative_area_level_4", "political" ]
            },
            {
               "long_name" : "Derince",
               "short_name" : "Derince",
               "types" : [ "administrative_area_level_2", "political" ]
            },
            {
               "long_name" : "Kocaeli",
               "short_name" : "Kocaeli",
               "types" : [ "administrative_area_level_1", "political" ]
            },
            {
               "long_name" : "Turkey",
               "short_name" : "TR",
               "types" : [ "country", "political" ]
            },
            {
               "long_name" : "41900",
               "short_name" : "41900",
               "types" : [ "postal_code" ]
            }
         ],
         "formatted_address" : "Toylar, 41900 Derince/Kocaeli, Turkey",
         "geometry" : {
            "bounds" : {
               "northeast" : {
                  "lat" : 40.860828,
                  "lng" : 29.913161
               },
               "southwest" : {
                  "lat" : 40.77243,
                  "lng" : 29.8019411
               }
            },
            "location" : {
               "lat" : 40.8168978,
               "lng" : 29.8468043
            },
            "location_type" : "APPROXIMATE",
            "viewport" : {
               "northeast" : {
                  "lat" : 40.860828,
                  "lng" : 29.913161
               },
               "southwest" : {
                  "lat" : 40.77243,
                  "lng" : 29.8019411
               }
            }
         },
         "place_id" : "ChIJjVRNmnFJyxQRhqcbJT9jgGo",
         "types" : [ "administrative_area_level_4", "political" ]
      },
      {
         "address_components" : [
            {
               "long_name" : "41900",
               "short_name" : "41900",
               "types" : [ "postal_code" ]
            },
            {
               "long_name" : "Toylar",
               "short_name" : "Toylar",
               "types" : [ "administrative_area_level_4", "political" ]
            },
            {
               "long_name" : "Derince",
               "short_name" : "Derince",
               "types" : [ "administrative_area_level_2", "political" ]
            },
            {
               "long_name" : "Kocaeli",
               "short_name" : "Kocaeli",
               "types" : [ "administrative_area_level_1", "political" ]
            },
            {
               "long_name" : "Turkey",
               "short_name" : "TR",
               "types" : [ "country", "political" ]
            }
         ],
         "formatted_address" : "Toylar, 41900 Derince/Kocaeli, Turkey",
         "geometry" : {
            "bounds" : {
               "northeast" : {
                  "lat" : 40.860828,
                  "lng" : 29.913161
               },
               "southwest" : {
                  "lat" : 40.77243,
                  "lng" : 29.8019411
               }
            },
            "location" : {
               "lat" : 40.8168978,
               "lng" : 29.8468043
            },
            "location_type" : "APPROXIMATE",
            "viewport" : {
               "northeast" : {
                  "lat" : 40.860828,
                  "lng" : 29.913161
               },
               "southwest" : {
                  "lat" : 40.77243,
                  "lng" : 29.8019411
               }
            }
         },
         "place_id" : "ChIJpdRccOdIyxQRQGGnQo5KtJw",
         "types" : [ "postal_code" ]
      },
      {
         "address_components" : [
            {
               "long_name" : "Derince",
               "short_name" : "Derince",
               "types" : [ "administrative_area_level_2", "political" ]
            },
            {
               "long_name" : "Kocaeli",
               "short_name" : "Kocaeli",
               "types" : [ "administrative_area_level_1", "political" ]
            },
            {
               "long_name" : "Turkey",
               "short_name" : "TR",
               "types" : [ "country", "political" ]
            }
         ],
         "formatted_address" : "Derince/Kocaeli, Turkey",
         "geometry" : {
            "bounds" : {
               "northeast" : {
                  "lat" : 41.020148,
                  "lng" : 29.9408809
               },
               "southwest" : {
                  "lat" : 40.7433789,
                  "lng" : 29.7896059
               }
            },
            "location" : {
               "lat" : 40.8651717,
               "lng" : 29.9046594
            },
            "location_type" : "APPROXIMATE",
            "viewport" : {
               "northeast" : {
                  "lat" : 41.020148,
                  "lng" : 29.9408809
               },
               "southwest" : {
                  "lat" : 40.7433789,
                  "lng" : 29.7896059
               }
            }
         },
         "place_id" : "ChIJEQyDfJZLyxQRlUruAGfzeKE",
         "types" : [ "administrative_area_level_2", "political" ]
      },
      {
         "address_components" : [
            {
               "long_name" : "Kocaeli",
               "short_name" : "Kocaeli",
               "types" : [ "administrative_area_level_1", "political" ]
            },
            {
               "long_name" : "Turkey",
               "short_name" : "TR",
               "types" : [ "country", "political" ]
            }
         ],
         "formatted_address" : "Kocaeli, Turkey",
         "geometry" : {
            "bounds" : {
               "northeast" : {
                  "lat" : 41.20976,
                  "lng" : 30.367743
               },
               "southwest" : {
                  "lat" : 40.524151,
                  "lng" : 29.3331261
               }
            },
            "location" : {
               "lat" : 40.8532704,
               "lng" : 29.8815203
            },
            "location_type" : "APPROXIMATE",
            "viewport" : {
               "northeast" : {
                  "lat" : 41.20976,
                  "lng" : 30.367743
               },
               "southwest" : {
                  "lat" : 40.524151,
                  "lng" : 29.3331261
               }
            }
         },
         "place_id" : "ChIJQ8zKb5QgyxQRWdhW642zLKg",
         "types" : [ "administrative_area_level_1", "political" ]
      },
      {
         "address_components" : [
            {
               "long_name" : "Turkey",
               "short_name" : "TR",
               "types" : [ "country", "political" ]
            }
         ],
         "formatted_address" : "Turkey",
         "geometry" : {
            "bounds" : {
               "northeast" : {
                  "lat" : 42.3666999,
                  "lng" : 44.8178449
               },
               "southwest" : {
                  "lat" : 35.808592,
                  "lng" : 25.5377
               }
            },
            "location" : {
               "lat" : 38.963745,
               "lng" : 35.243322
            },
            "location_type" : "APPROXIMATE",
            "viewport" : {
               "northeast" : {
                  "lat" : 42.3666999,
                  "lng" : 44.8178449
               },
               "southwest" : {
                  "lat" : 35.808592,
                  "lng" : 25.5377
               }
            }
         },
         "place_id" : "ChIJcSZPllwVsBQRKl9iKtTb2UA",
         "types" : [ "country", "political" ]
      }
   ],
   "status" : "OK"
}
