{
   "plus_code" : {
      "compound_code" : "QR4H+XX Derince/Kocaeli, Turkey",
      "global_code" : "8GGFQR4H+XX"
   },
   "results" : [
      {
         "address_components" : [
            {
               "long_name" : "90",
               "short_name" : "90",
               "types" : [ "street_number" ]
            },
            {
               "long_name" : "Denizciler Caddesi",
               "short_name" : "Denizciler Cd.",
               "types" : [ "route" ]
            },
            {
               "long_name" : "Çenedağ",
               "short_name" : "Çenedağ",
               "types" : [ "administrative_area_level_4", "political" ]
            },
            {
               "long_name" : "Derince",
               "short_name" : "Derince",
               "types" : [ "administrative_area_level_2", "political" ]
            },
            {
               "long_name" : "Kocaeli",
               "short_name" : "Kocaeli",
               "types" : [ "administrative_area_level_1", "political" ]
            },
            {
               "long_name" : "Turkey",
               "short_name" : "TR",
               "types" : [ "country", "political" ]
            },
            {
               "long_name" : "41900",
               "short_name" : "41900",
               "types" : [ "postal_code" ]
            }
         ],
         "formatted_address" : "Çenedağ, Denizciler Cd. No:90, 41900 Derince/Kocaeli, Turkey",
         "geometry" : {
            "bounds" : {
               "northeast" : {
                  "lat" : 40.7574901,
                  "lng" : 29.8299526
               },
               "southwest" : {
                  "lat" : 40.7574148,
                  "lng" : 29.829871
               }
            },
            "location" : {
               "lat" : 40.757458,
               "lng" : 29.8299177
            },
            "location_type" : "ROOFTOP",
            "viewport" : {
               "northeast" : {
                  "lat" : 40.7588014302915,
                  "lng" : 29.8312607802915
               },
               "southwest" : {
                  "lat" : 40.7561034697085,
                  "lng" : 29.8285628197085
               }
            }
         },
         "place_id" : "ChIJaRjJBKpHyxQRgAw82RgKzrg",
         "types" : [ "premise" ]
      },
      {
         "address_components" : [
            {
               "long_name" : "no:88/A",
               "short_name" : "no:88/A",
               "types" : [ "street_number" ]
            },
            {
               "long_name" : "Denizciler Caddesi",
               "short_name" : "Denizciler Cd.",
               "types" : [ "route" ]
            },
            {
               "long_name" : "Çenedağ",
               "short_name" : "Çenedağ",
               "types" : [ "administrative_area_level_4", "political" ]
            },
            {
               "long_name" : "Derince",
               "short_name" : "Derince",
               "types" : [ "administrative_area_level_2", "political" ]
            },
            {
               "long_name" : "Kocaeli",
               "short_name" : "Kocaeli",
               "types" : [ "administrative_area_level_1", "political" ]
            },
            {
               "long_name" : "Turkey",
               "short_name" : "TR",
               "types" : [ "country", "political" ]
            },
            {
               "long_name" : "41000",
               "short_name" : "41000",
               "types" : [ "postal_code" ]
            }
         ],
         "formatted_address" : "Çenedağ, Denizciler Cd. no:88/A, 41000 Derince/Kocaeli, Turkey",
         "geometry" : {
            "location" : {
               "lat" : 40.757485,
               "lng" : 29.829995
            },
            "location_type" : "ROOFTOP",
            "viewport" : {
               "northeast" : {
                  "lat" : 40.75883398029149,
                  "lng" : 29.8313439802915
               },
               "southwest" : {
                  "lat" : 40.75613601970849,
                  "lng" : 29.8286460197085
               }
            }
         },
         "place_id" : "ChIJvaPXGqpHyxQRylo1GjqPLSM",
         "plus_code" : {
            "compound_code" : "QR4H+XX Derince/Kocaeli, Turkey",
            "global_code" : "8GGFQR4H+XX"
         },
         "types" : [ "street_address" ]
      },
      {
         "address_components" : [
            {
               "long_name" : "90",
               "short_name" : "90",
               "types" : [ "street_number" ]
            },
            {
               "long_name" : "Denizciler Caddesi",
               "short_name" : "Denizciler Cd.",
               "types" : [ "route" ]
            },
            {
               "long_name" : "Çenedağ",
               "short_name" : "Çenedağ",
               "types" : [ "administrative_area_level_4", "political" ]
            },
            {
               "long_name" : "Derince",
               "short_name" : "Derince",
               "types" : [ "administrative_area_level_2", "political" ]
            },
            {
               "long_name" : "Kocaeli",
               "short_name" : "Kocaeli",
               "types" : [ "administrative_area_level_1", "political" ]
            },
            {
               "long_name" : "Turkey",
               "short_name" : "TR",
               "types" : [ "country", "political" ]
            },
            {
               "long_name" : "41900",
               "short_name" : "41900",
               "types" : [ "postal_code" ]
            }
         ],
         "formatted_address" : "Çenedağ, Denizciler Cd. No:90, 41900 Derince/Kocaeli, Turkey",
         "geometry" : {
            "location" : {
               "lat" : 40.757445,
               "lng" : 29.829906
            },
            "location_type" : "ROOFTOP",
            "viewport" : {
               "northeast" : {
                  "lat" : 40.75879398029149,
                  "lng" : 29.8312549802915
               },
               "southwest" : {
                  "lat" : 40.75609601970849,
                  "lng" : 29.8285570197085
               }
            }
         },
         "place_id" : "ChIJRaJCBapHyxQR8iMTO3HxZgM",
         "plus_code" : {
            "compound_code" : "QR4H+XX Derince/Kocaeli, Turkey",
            "global_code" : "8GGFQR4H+XX"
         },
         "types" : [ "establishment", "point_of_interest" ]
      },
      {
         "address_components" : [
            {
               "long_name" : "90",
               "short_name" : "90",
               "types" : [ "street_number" ]
            },
            {
               "long_name" : "Denizciler Caddesi",
               "short_name" : "Denizciler Cd.",
               "types" : [ "route" ]
            },
            {
               "long_name" : "Çenedağ",
               "short_name" : "Çenedağ",
               "types" : [ "administrative_area_level_4", "political" ]
            },
            {
               "long_name" : "Derince",
               "short_name" : "Derince",
               "types" : [ "administrative_area_level_2", "political" ]
            },
            {
               "long_name" : "Kocaeli",
               "short_name" : "Kocaeli",
               "types" : [ "administrative_area_level_1", "political" ]
            },
            {
               "long_name" : "Turkey",
               "short_name" : "TR",
               "types" : [ "country", "political" ]
            },
            {
               "long_name" : "41900",
               "short_name" : "41900",
               "types" : [ "postal_code" ]
            }
         ],
         "formatted_address" : "Çenedağ, Denizciler Cd. No:90, 41900 Derince/Kocaeli, Turkey",
         "geometry" : {
            "location" : {
               "lat" : 40.7573348,
               "lng" : 29.829939
            },
            "location_type" : "RANGE_INTERPOLATED",
            "viewport" : {
               "northeast" : {
                  "lat" : 40.7586837802915,
                  "lng" : 29.8312879802915
               },
               "southwest" : {
                  "lat" : 40.7559858197085,
                  "lng" : 29.8285900197085
               }
            }
         },
         "place_id" : "Ej7Dh2VuZWRhxJ8sIERlbml6Y2lsZXIgQ2QuIE5vOjkwLCA0MTkwMCBEZXJpbmNlL0tvY2FlbGksIFR1cmtleSIaEhgKFAoSCfsvkwOqR8sUEdA8xzd6shApEFo",
         "types" : [ "street_address" ]
      },
      {
         "address_components" : [
            {
               "long_name" : "QR4H+XX",
               "short_name" : "QR4H+XX",
               "types" : [ "plus_code" ]
            },
            {
               "long_name" : "Derince",
               "short_name" : "Derince",
               "types" : [ "administrative_area_level_2", "political" ]
            },
            {
               "long_name" : "Kocaeli",
               "short_name" : "Kocaeli",
               "types" : [ "administrative_area_level_1", "political" ]
            },
            {
               "long_name" : "Turkey",
               "short_name" : "TR",
               "types" : [ "country", "political" ]
            }
         ],
         "formatted_address" : "QR4H+XX Derince/Kocaeli, Turkey",
         "geometry" : {
            "bounds" : {
               "northeast" : {
                  "lat" : 40.7575,
                  "lng" : 29.83
               },
               "southwest" : {
                  "lat" : 40.757375,
                  "lng" : 29.829875
               }
            },
            "location" : {
               "lat" : 40.7574001,
               "lng" : 29.8299408
            },
            "location_type" : "ROOFTOP",
            "viewport" : {
               "northeast" : {
                  "lat" : 40.7587864802915,
                  "lng" : 29.8312864802915
               },
               "southwest" : {
                  "lat" : 40.75608851970851,
                  "lng" : 29.8285885197085
               }
            }
         },
         "place_id" : "GhIJWr6JfPJgREARuJ0RAHfUPUA",
         "plus_code" : {
            "compound_code" : "QR4H+XX Derince/Kocaeli, Turkey",
            "global_code" : "8GGFQR4H+XX"
         },
         "types" : [ "plus_code" ]
      },
      {
         "address_components" : [
            {
               "long_name" : "84-102",
               "short_name" : "84-102",
               "types" : [ "street_number" ]
            },
            {
               "long_name" : "Denizciler Caddesi",
               "short_name" : "Denizciler Cd.",
               "types" : [ "route" ]
            },
            {
               "long_name" : "Çenedağ",
               "short_name" : "Çenedağ",
               "types" : [ "administrative_area_level_4", "political" ]
            },
            {
               "long_name" : "Derince",
               "short_name" : "Derince",
               "types" : [ "administrative_area_level_2", "political" ]
            },
            {
               "long_name" : "Kocaeli",
               "short_name" : "Kocaeli",
               "types" : [ "administrative_area_level_1", "political" ]
            },
            {
               "long_name" : "Turkey",
               "short_name" : "TR",
               "types" : [ "country", "political" ]
            },
            {
               "long_name" : "41900",
               "short_name" : "41900",
               "types" : [ "postal_code" ]
            }
         ],
         "formatted_address" : "Çenedağ, Denizciler Cd. 84-102, 41900 Derince/Kocaeli, Turkey",
         "geometry" : {
            "bounds" : {
               "northeast" : {
                  "lat" : 40.757366,
                  "lng" : 29.8302543
               },
               "southwest" : {
                  "lat" : 40.757262,
                  "lng" : 29.829204
               }
            },
            "location" : {
               "lat" : 40.757314,
               "lng" : 29.8297291
            },
            "location_type" : "GEOMETRIC_CENTER",
            "viewport" : {
               "northeast" : {
                  "lat" : 40.7586629802915,
                  "lng" : 29.83107813029149
               },
               "southwest" : {
                  "lat" : 40.7559650197085,
                  "lng" : 29.8283801697085
               }
            }
         },
         "place_id" : "ChIJ-y-TA6pHyxQR0DzHN3qyECk",
         "types" : [ "route" ]
      },
      {
         "address_components" : [
            {
               "long_name" : "Çenedağ",
               "short_name" : "Çenedağ",
               "types" : [ "administrative_area_level_4", "political" ]
            },
            {
               "long_name" : "Derince",
               "short_name" : "Derince",
               "types" : [ "administrative_area_level_2", "political" ]
            },
            {
               "long_name" : "Kocaeli",
               "short_name" : "Kocaeli",
               "types" : [ "administrative_area_level_1", "political" ]
            },
            {
               "long_name" : "Turkey",
               "short_name" : "TR",
               "types" : [ "country", "political" ]
            },
            {
               "long_name" : "41900",
               "short_name" : "41900",
               "types" : [ "postal_code" ]
            }
         ],
         "formatted_address" : "Çenedağ, 41900 Derince/Kocaeli, Turkey",
         "geometry" : {
            "bounds" : {
               "northeast" : {
                  "lat" : 40.769328,
                  "lng" : 29.840298
               },
               "southwest" : {
                  "lat" : 40.7560069,
                  "lng" : 29.8266699
               }
            },
            "location" : {
               "lat" : 40.7631567,
               "lng" : 29.8323367
            },
            "location_type" : "APPROXIMATE",
            "viewport" : {
               "northeast" : {
                  "lat" : 40.769328,
                  "lng" : 29.840298
               },
               "southwest" : {
                  "lat" : 40.7560069,
                  "lng" : 29.8266699
               }
            }
         },
         "place_id" : "ChIJ6Wtc4KxHyxQRyhTIlIPYnwU",
         "types" : [ "administrative_area_level_4", "political" ]
      },
      {
         "address_components" : [
            {
               "long_name" : "41900",
               "short_name" : "41900",
               "types" : [ "postal_code" ]
            },
            {
               "long_name" : "Çenedağ",
               "short_name" : "Çenedağ",
               "types" : [ "administrative_area_level_4", "political" ]
            },
            {
               "long_name" : "Derince",
               "short_name" : "Derince",
               "types" : [ "administrative_area_level_2", "political" ]
            },
            {
               "long_name" : "Kocaeli",
               "short_name" : "Kocaeli",
               "types" : [ "administrative_area_level_1", "political" ]
            },
            {
               "long_name" : "Turkey",
               "short_name" : "TR",
               "types" : [ "country", "political" ]
            }
         ],
         "formatted_address" : "Çenedağ, 41900 Derince/Kocaeli, Turkey",
         "geometry" : {
            "bounds" : {
               "northeast" : {
                  "lat" : 40.769328,
                  "lng" : 29.840298
               },
               "southwest" : {
                  "lat" : 40.7560069,
                  "lng" : 29.8266699
               }
            },
            "location" : {
               "lat" : 40.7631567,
               "lng" : 29.8323367
            },
            "location_type" : "APPROXIMATE",
            "viewport" : {
               "northeast" : {
                  "lat" : 40.769328,
                  "lng" : 29.840298
               },
               "southwest" : {
                  "lat" : 40.7560069,
                  "lng" : 29.8266699
               }
            }
         },
         "place_id" : "ChIJAUpx4axHyxQRmal_Qcvgyb8",
         "types" : [ "postal_code" ]
      },
      {
         "address_components" : [
            {
               "long_name" : "Derince",
               "short_name" : "Derince",
               "types" : [ "locality", "political" ]
            },
            {
               "long_name" : "Derince",
               "short_name" : "Derince",
               "types" : [ "administrative_area_level_2", "political" ]
            },
            {
               "long_name" : "Kocaeli",
               "short_name" : "Kocaeli",
               "types" : [ "administrative_area_level_1", "political" ]
            },
            {
               "long_name" : "Turkey",
               "short_name" : "TR",
               "types" : [ "country", "political" ]
            }
         ],
         "formatted_address" : "Derince, Kocaeli, Turkey",
         "geometry" : {
            "bounds" : {
               "northeast" : {
                  "lat" : 40.7834289,
                  "lng" : 29.86186409999999
               },
               "southwest" : {
                  "lat" : 40.7434099,
                  "lng" : 29.795142
               }
            },
            "location" : {
               "lat" : 40.756189,
               "lng" : 29.830918
            },
            "location_type" : "APPROXIMATE",
            "viewport" : {
               "northeast" : {
                  "lat" : 40.7834289,
                  "lng" : 29.86186409999999
               },
               "southwest" : {
                  "lat" : 40.7434099,
                  "lng" : 29.795142
               }
            }
         },
         "place_id" : "ChIJQwQlka5HyxQR0onIa5ip9YU",
         "types" : [ "locality", "political" ]
      },
      {
         "address_components" : [
            {
               "long_name" : "Derince",
               "short_name" : "Derince",
               "types" : [ "administrative_area_level_2", "political" ]
            },
            {
               "long_name" : "Kocaeli",
               "short_name" : "Kocaeli",
               "types" : [ "administrative_area_level_1", "political" ]
            },
            {
               "long_name" : "Turkey",
               "short_name" : "TR",
               "types" : [ "country", "political" ]
            }
         ],
         "formatted_address" : "Derince/Kocaeli, Turkey",
         "geometry" : {
            "bounds" : {
               "northeast" : {
                  "lat" : 41.020148,
                  "lng" : 29.9408809
               },
               "southwest" : {
                  "lat" : 40.7433789,
                  "lng" : 29.7896059
               }
            },
            "location" : {
               "lat" : 40.8651717,
               "lng" : 29.9046594
            },
            "location_type" : "APPROXIMATE",
            "viewport" : {
               "northeast" : {
                  "lat" : 41.020148,
                  "lng" : 29.9408809
               },
               "southwest" : {
                  "lat" : 40.7433789,
                  "lng" : 29.7896059
               }
            }
         },
         "place_id" : "ChIJEQyDfJZLyxQRlUruAGfzeKE",
         "types" : [ "administrative_area_level_2", "political" ]
      },
      {
         "address_components" : [
            {
               "long_name" : "Kocaeli",
               "short_name" : "Kocaeli",
               "types" : [ "administrative_area_level_1", "political" ]
            },
            {
               "long_name" : "Turkey",
               "short_name" : "TR",
               "types" : [ "country", "political" ]
            }
         ],
         "formatted_address" : "Kocaeli, Turkey",
         "geometry" : {
            "bounds" : {
               "northeast" : {
                  "lat" : 41.20976,
                  "lng" : 30.367743
               },
               "southwest" : {
                  "lat" : 40.524151,
                  "lng" : 29.3331261
               }
            },
            "location" : {
               "lat" : 40.8532704,
               "lng" : 29.8815203
            },
            "location_type" : "APPROXIMATE",
            "viewport" : {
               "northeast" : {
                  "lat" : 41.20976,
                  "lng" : 30.367743
               },
               "southwest" : {
                  "lat" : 40.524151,
                  "lng" : 29.3331261
               }
            }
         },
         "place_id" : "ChIJQ8zKb5QgyxQRWdhW642zLKg",
         "types" : [ "administrative_area_level_1", "political" ]
      },
      {
         "address_components" : [
            {
               "long_name" : "Turkey",
               "short_name" : "TR",
               "types" : [ "country", "political" ]
            }
         ],
         "formatted_address" : "Turkey",
         "geometry" : {
            "bounds" : {
               "northeast" : {
                  "lat" : 42.3666999,
                  "lng" : 44.8178449
               },
               "southwest" : {
                  "lat" : 35.808592,
                  "lng" : 25.5377
               }
            },
            "location" : {
               "lat" : 38.963745,
               "lng" : 35.243322
            },
            "location_type" : "APPROXIMATE",
            "viewport" : {
               "northeast" : {
                  "lat" : 42.3666999,
                  "lng" : 44.8178449
               },
               "southwest" : {
                  "lat" : 35.808592,
                  "lng" : 25.5377
               }
            }
         },
         "place_id" : "ChIJcSZPllwVsBQRKl9iKtTb2UA",
         "types" : [ "country", "political" ]
      }
   ],
   "status" : "OK"
}
