{
   "plus_code" : {
      "compound_code" : "P33X+R9M Kartepe/Kocaeli, Turkey",
      "global_code" : "8GGGP33X+R9M"
   },
   "results" : [
      {
         "address_components" : [
            {
               "long_name" : "19",
               "short_name" : "19",
               "types" : [ "street_number" ]
            },
            {
               "long_name" : "Öğretmenler Sokak",
               "short_name" : "Öğretmenler Sk.",
               "types" : [ "route" ]
            },
            {
               "long_name" : "Şirinsulhiye",
               "short_name" : "Şirinsulhiye",
               "types" : [ "administrative_area_level_4", "political" ]
            },
            {
               "long_name" : "Kartepe",
               "short_name" : "Kartepe",
               "types" : [ "administrative_area_level_2", "political" ]
            },
            {
               "long_name" : "Kocaeli",
               "short_name" : "Kocaeli",
               "types" : [ "administrative_area_level_1", "political" ]
            },
            {
               "long_name" : "Turkey",
               "short_name" : "TR",
               "types" : [ "country", "political" ]
            },
            {
               "long_name" : "41250",
               "short_name" : "41250",
               "types" : [ "postal_code" ]
            }
         ],
         "formatted_address" : "Şirinsulhiye, Öğretmenler Sk. No:19, 41250 Kartepe/Kocaeli, Turkey",
         "geometry" : {
            "location" : {
               "lat" : 40.7045644,
               "lng" : 30.0998834
            },
            "location_type" : "ROOFTOP",
            "viewport" : {
               "northeast" : {
                  "lat" : 40.7059133802915,
                  "lng" : 30.1012323802915
               },
               "southwest" : {
                  "lat" : 40.7032154197085,
                  "lng" : 30.0985344197085
               }
            }
         },
         "place_id" : "ChIJX6ZolsVZyxQR8iCb06_kaGY",
         "plus_code" : {
            "compound_code" : "P33X+RX Kartepe/Kocaeli, Turkey",
            "global_code" : "8GGGP33X+RX"
         },
         "types" : [ "street_address" ]
      },
      {
         "address_components" : [
            {
               "long_name" : "P33X+R9",
               "short_name" : "P33X+R9",
               "types" : [ "plus_code" ]
            },
            {
               "long_name" : "Kartepe",
               "short_name" : "Kartepe",
               "types" : [ "administrative_area_level_2", "political" ]
            },
            {
               "long_name" : "Kocaeli",
               "short_name" : "Kocaeli",
               "types" : [ "administrative_area_level_1", "political" ]
            },
            {
               "long_name" : "Turkey",
               "short_name" : "TR",
               "types" : [ "country", "political" ]
            }
         ],
         "formatted_address" : "P33X+R9 Kartepe/Kocaeli, Turkey",
         "geometry" : {
            "bounds" : {
               "northeast" : {
                  "lat" : 40.704625,
                  "lng" : 30.09849999999999
               },
               "southwest" : {
                  "lat" : 40.7045,
                  "lng" : 30.098375
               }
            },
            "location" : {
               "lat" : 40.7045869,
               "lng" : 30.0984192
            },
            "location_type" : "GEOMETRIC_CENTER",
            "viewport" : {
               "northeast" : {
                  "lat" : 40.7059114802915,
                  "lng" : 30.0997864802915
               },
               "southwest" : {
                  "lat" : 40.7032135197085,
                  "lng" : 30.0970885197085
               }
            }
         },
         "place_id" : "GhIJUlhO5y9aREARakwtADIZPkA",
         "plus_code" : {
            "compound_code" : "P33X+R9 Kartepe/Kocaeli, Turkey",
            "global_code" : "8GGGP33X+R9"
         },
         "types" : [ "plus_code" ]
      },
      {
         "address_components" : [
            {
               "long_name" : "77",
               "short_name" : "77",
               "types" : [ "street_number" ]
            },
            {
               "long_name" : "Kadem Sokak",
               "short_name" : "Kadem Sk.",
               "types" : [ "route" ]
            },
            {
               "long_name" : "Nusretiye",
               "short_name" : "Nusretiye",
               "types" : [ "administrative_area_level_4", "political" ]
            },
            {
               "long_name" : "Kartepe",
               "short_name" : "Kartepe",
               "types" : [ "administrative_area_level_2", "political" ]
            },
            {
               "long_name" : "Kocaeli",
               "short_name" : "Kocaeli",
               "types" : [ "administrative_area_level_1", "political" ]
            },
            {
               "long_name" : "Turkey",
               "short_name" : "TR",
               "types" : [ "country", "political" ]
            },
            {
               "long_name" : "41250",
               "short_name" : "41250",
               "types" : [ "postal_code" ]
            }
         ],
         "formatted_address" : "Nusretiye, Kadem Sk. No:77, 41250 Kartepe/Kocaeli, Turkey",
         "geometry" : {
            "location" : {
               "lat" : 40.7051162,
               "lng" : 30.09756639999999
            },
            "location_type" : "RANGE_INTERPOLATED",
            "viewport" : {
               "northeast" : {
                  "lat" : 40.7064651802915,
                  "lng" : 30.09891538029149
               },
               "southwest" : {
                  "lat" : 40.7037672197085,
                  "lng" : 30.0962174197085
               }
            }
         },
         "place_id" : "EjlOdXNyZXRpeWUsIEthZGVtIFNrLiBObzo3NywgNDEyNTAgS2FydGVwZS9Lb2NhZWxpLCBUdXJrZXkiGhIYChQKEgl9kJpOxFnLFBFvd40uEMhFYxBN",
         "types" : [ "street_address" ]
      },
      {
         "address_components" : [
            {
               "long_name" : "19",
               "short_name" : "19",
               "types" : [ "street_number" ]
            },
            {
               "long_name" : "Öğretmenler Sokak",
               "short_name" : "Öğretmenler Sk.",
               "types" : [ "route" ]
            },
            {
               "long_name" : "Şirinsulhiye",
               "short_name" : "Şirinsulhiye",
               "types" : [ "administrative_area_level_4", "political" ]
            },
            {
               "long_name" : "Kartepe",
               "short_name" : "Kartepe",
               "types" : [ "administrative_area_level_2", "political" ]
            },
            {
               "long_name" : "Kocaeli",
               "short_name" : "Kocaeli",
               "types" : [ "administrative_area_level_1", "political" ]
            },
            {
               "long_name" : "Turkey",
               "short_name" : "TR",
               "types" : [ "country", "political" ]
            },
            {
               "long_name" : "41250",
               "short_name" : "41250",
               "types" : [ "postal_code" ]
            }
         ],
         "formatted_address" : "Şirinsulhiye, Öğretmenler Sk. No:19, 41250 Kartepe/Kocaeli, Turkey",
         "geometry" : {
            "bounds" : {
               "northeast" : {
                  "lat" : 40.704589,
                  "lng" : 30.0999655
               },
               "southwest" : {
                  "lat" : 40.7038792,
                  "lng" : 30.0991964
               }
            },
            "location" : {
               "lat" : 40.7043213,
               "lng" : 30.09932439999999
            },
            "location_type" : "GEOMETRIC_CENTER",
            "viewport" : {
               "northeast" : {
                  "lat" : 40.7055830802915,
                  "lng" : 30.1009299302915
               },
               "southwest" : {
                  "lat" : 40.7028851197085,
                  "lng" : 30.0982319697085
               }
            }
         },
         "place_id" : "ChIJEwkhwMVZyxQR6n62hcVCllM",
         "types" : [ "route" ]
      },
      {
         "address_components" : [
            {
               "long_name" : "41250",
               "short_name" : "41250",
               "types" : [ "postal_code" ]
            },
            {
               "long_name" : "Şirinsulhiye",
               "short_name" : "Şirinsulhiye",
               "types" : [ "administrative_area_level_4", "political" ]
            },
            {
               "long_name" : "Kartepe",
               "short_name" : "Kartepe",
               "types" : [ "administrative_area_level_2", "political" ]
            },
            {
               "long_name" : "Kocaeli",
               "short_name" : "Kocaeli",
               "types" : [ "administrative_area_level_1", "political" ]
            },
            {
               "long_name" : "Turkey",
               "short_name" : "TR",
               "types" : [ "country", "political" ]
            }
         ],
         "formatted_address" : "Şirinsulhiye, 41250 Kartepe/Kocaeli, Turkey",
         "geometry" : {
            "bounds" : {
               "northeast" : {
                  "lat" : 40.70559000000001,
                  "lng" : 30.111377
               },
               "southwest" : {
                  "lat" : 40.692,
                  "lng" : 30.09609709999999
               }
            },
            "location" : {
               "lat" : 40.69882459999999,
               "lng" : 30.1026276
            },
            "location_type" : "APPROXIMATE",
            "viewport" : {
               "northeast" : {
                  "lat" : 40.70559000000001,
                  "lng" : 30.111377
               },
               "southwest" : {
                  "lat" : 40.692,
                  "lng" : 30.09609709999999
               }
            }
         },
         "place_id" : "ChIJwab4S8hZyxQRfEXXLOKiHEY",
         "types" : [ "postal_code" ]
      },
      {
         "address_components" : [
            {
               "long_name" : "Şirinsulhiye",
               "short_name" : "Şirinsulhiye",
               "types" : [ "administrative_area_level_4", "political" ]
            },
            {
               "long_name" : "Kartepe",
               "short_name" : "Kartepe",
               "types" : [ "administrative_area_level_2", "political" ]
            },
            {
               "long_name" : "Kocaeli",
               "short_name" : "Kocaeli",
               "types" : [ "administrative_area_level_1", "political" ]
            },
            {
               "long_name" : "Turkey",
               "short_name" : "TR",
               "types" : [ "country", "political" ]
            },
            {
               "long_name" : "41250",
               "short_name" : "41250",
               "types" : [ "postal_code" ]
            }
         ],
         "formatted_address" : "Şirinsulhiye, 41250 Kartepe/Kocaeli, Turkey",
         "geometry" : {
            "bounds" : {
               "northeast" : {
                  "lat" : 40.70559000000001,
                  "lng" : 30.111377
               },
               "southwest" : {
                  "lat" : 40.692,
                  "lng" : 30.09609709999999
               }
            },
            "location" : {
               "lat" : 40.69882459999999,
               "lng" : 30.1026276
            },
            "location_type" : "APPROXIMATE",
            "viewport" : {
               "northeast" : {
                  "lat" : 40.70559000000001,
                  "lng" : 30.111377
               },
               "southwest" : {
                  "lat" : 40.692,
                  "lng" : 30.09609709999999
               }
            }
         },
         "place_id" : "ChIJLSfZZsdZyxQRAsmlYxkgo-s",
         "types" : [ "administrative_area_level_4", "political" ]
      },
      {
         "address_components" : [
            {
               "long_name" : "Şirinsulhiye",
               "short_name" : "Şirinsulhiye",
               "types" : [ "locality", "political" ]
            },
            {
               "long_name" : "Şirinsulhiye",
               "short_name" : "Şirinsulhiye",
               "types" : [ "administrative_area_level_4", "political" ]
            },
            {
               "long_name" : "Kartepe",
               "short_name" : "Kartepe",
               "types" : [ "administrative_area_level_2", "political" ]
            },
            {
               "long_name" : "Kocaeli",
               "short_name" : "Kocaeli",
               "types" : [ "administrative_area_level_1", "political" ]
            },
            {
               "long_name" : "Turkey",
               "short_name" : "TR",
               "types" : [ "country", "political" ]
            }
         ],
         "formatted_address" : "Şirinsulhiye, Kartepe/Kocaeli, Turkey",
         "geometry" : {
            "bounds" : {
               "northeast" : {
                  "lat" : 40.70589289999999,
                  "lng" : 30.1148631
               },
               "southwest" : {
                  "lat" : 40.6920011,
                  "lng" : 30.0961189
               }
            },
            "location" : {
               "lat" : 40.699608,
               "lng" : 30.097044
            },
            "location_type" : "APPROXIMATE",
            "viewport" : {
               "northeast" : {
                  "lat" : 40.70589289999999,
                  "lng" : 30.1148631
               },
               "southwest" : {
                  "lat" : 40.6920011,
                  "lng" : 30.0961189
               }
            }
         },
         "place_id" : "ChIJd5rdNDRYyxQRWhJqMi6rh1E",
         "types" : [ "locality", "political" ]
      },
      {
         "address_components" : [
            {
               "long_name" : "Kartepe",
               "short_name" : "Kartepe",
               "types" : [ "administrative_area_level_2", "political" ]
            },
            {
               "long_name" : "Kocaeli",
               "short_name" : "Kocaeli",
               "types" : [ "administrative_area_level_1", "political" ]
            },
            {
               "long_name" : "Turkey",
               "short_name" : "TR",
               "types" : [ "country", "political" ]
            }
         ],
         "formatted_address" : "Kartepe/Kocaeli, Turkey",
         "geometry" : {
            "bounds" : {
               "northeast" : {
                  "lat" : 40.786927,
                  "lng" : 30.26217
               },
               "southwest" : {
                  "lat" : 40.588952,
                  "lng" : 29.9860989
               }
            },
            "location" : {
               "lat" : 40.70139169999999,
               "lng" : 30.0896313
            },
            "location_type" : "APPROXIMATE",
            "viewport" : {
               "northeast" : {
                  "lat" : 40.786927,
                  "lng" : 30.26217
               },
               "southwest" : {
                  "lat" : 40.588952,
                  "lng" : 29.9860989
               }
            }
         },
         "place_id" : "ChIJY9NMDlFYyxQRxGvcZ6xs_aY",
         "types" : [ "administrative_area_level_2", "political" ]
      },
      {
         "address_components" : [
            {
               "long_name" : "Kocaeli",
               "short_name" : "Kocaeli",
               "types" : [ "administrative_area_level_1", "political" ]
            },
            {
               "long_name" : "Turkey",
               "short_name" : "TR",
               "types" : [ "country", "political" ]
            }
         ],
         "formatted_address" : "Kocaeli, Turkey",
         "geometry" : {
            "bounds" : {
               "northeast" : {
                  "lat" : 41.20976,
                  "lng" : 30.367743
               },
               "southwest" : {
                  "lat" : 40.524151,
                  "lng" : 29.3331261
               }
            },
            "location" : {
               "lat" : 40.8532704,
               "lng" : 29.8815203
            },
            "location_type" : "APPROXIMATE",
            "viewport" : {
               "northeast" : {
                  "lat" : 41.20976,
                  "lng" : 30.367743
               },
               "southwest" : {
                  "lat" : 40.524151,
                  "lng" : 29.3331261
               }
            }
         },
         "place_id" : "ChIJQ8zKb5QgyxQRWdhW642zLKg",
         "types" : [ "administrative_area_level_1", "political" ]
      },
      {
         "address_components" : [
            {
               "long_name" : "Turkey",
               "short_name" : "TR",
               "types" : [ "country", "political" ]
            }
         ],
         "formatted_address" : "Turkey",
         "geometry" : {
            "bounds" : {
               "northeast" : {
                  "lat" : 42.3666999,
                  "lng" : 44.8178449
               },
               "southwest" : {
                  "lat" : 35.808592,
                  "lng" : 25.5377
               }
            },
            "location" : {
               "lat" : 38.963745,
               "lng" : 35.243322
            },
            "location_type" : "APPROXIMATE",
            "viewport" : {
               "northeast" : {
                  "lat" : 42.3666999,
                  "lng" : 44.8178449
               },
               "southwest" : {
                  "lat" : 35.808592,
                  "lng" : 25.5377
               }
            }
         },
         "place_id" : "ChIJcSZPllwVsBQRKl9iKtTb2UA",
         "types" : [ "country", "political" ]
      }
   ],
   "status" : "OK"
}
