{
   "plus_code" : {
      "compound_code" : "XP6X+V39 Kepez/Antalya, Turkey",
      "global_code" : "8G8GXP6X+V39"
   },
   "results" : [
      {
         "address_components" : [
            {
               "long_name" : "XP6X+V3",
               "short_name" : "XP6X+V3",
               "types" : [ "plus_code" ]
            },
            {
               "long_name" : "Kepez",
               "short_name" : "Kepez",
               "types" : [ "administrative_area_level_2", "political" ]
            },
            {
               "long_name" : "Antalya",
               "short_name" : "Antalya",
               "types" : [ "administrative_area_level_1", "political" ]
            },
            {
               "long_name" : "Turkey",
               "short_name" : "TR",
               "types" : [ "country", "political" ]
            }
         ],
         "formatted_address" : "XP6X+V3 Kepez/Antalya, Turkey",
         "geometry" : {
            "bounds" : {
               "northeast" : {
                  "lat" : 36.96225,
                  "lng" : 30.74775
               },
               "southwest" : {
                  "lat" : 36.962125,
                  "lng" : 30.747625
               }
            },
            "location" : {
               "lat" : 36.9621689,
               "lng" : 30.7477283
            },
            "location_type" : "GEOMETRIC_CENTER",
            "viewport" : {
               "northeast" : {
                  "lat" : 36.9635364802915,
                  "lng" : 30.7490364802915
               },
               "southwest" : {
                  "lat" : 36.9608385197085,
                  "lng" : 30.7463385197085
               }
            }
         },
         "place_id" : "GhIJOV27WSh7QkARLssyH2u_PkA",
         "plus_code" : {
            "compound_code" : "XP6X+V3 Kepez/Antalya, Turkey",
            "global_code" : "8G8GXP6X+V3"
         },
         "types" : [ "plus_code" ]
      },
      {
         "address_components" : [
            {
               "long_name" : "4055. Sokak",
               "short_name" : "4055. Sk.",
               "types" : [ "route" ]
            },
            {
               "long_name" : "Zeytinlik",
               "short_name" : "Zeytinlik",
               "types" : [ "administrative_area_level_4", "political" ]
            },
            {
               "long_name" : "Kepez",
               "short_name" : "Kepez",
               "types" : [ "administrative_area_level_2", "political" ]
            },
            {
               "long_name" : "Antalya",
               "short_name" : "Antalya",
               "types" : [ "administrative_area_level_1", "political" ]
            },
            {
               "long_name" : "Turkey",
               "short_name" : "TR",
               "types" : [ "country", "political" ]
            },
            {
               "long_name" : "07210",
               "short_name" : "07210",
               "types" : [ "postal_code" ]
            }
         ],
         "formatted_address" : "Zeytinlik, 4055. Sk., 07210 Kepez/Antalya, Turkey",
         "geometry" : {
            "bounds" : {
               "northeast" : {
                  "lat" : 36.9629749,
                  "lng" : 30.7479619
               },
               "southwest" : {
                  "lat" : 36.9628188,
                  "lng" : 30.7470648
               }
            },
            "location" : {
               "lat" : 36.96289549999999,
               "lng" : 30.7475136
            },
            "location_type" : "GEOMETRIC_CENTER",
            "viewport" : {
               "northeast" : {
                  "lat" : 36.9642458302915,
                  "lng" : 30.7488623302915
               },
               "southwest" : {
                  "lat" : 36.9615478697085,
                  "lng" : 30.7461643697085
               }
            }
         },
         "place_id" : "ChIJmZOKFnqGwxQRHFSJSaw76bs",
         "types" : [ "route" ]
      },
      {
         "address_components" : [
            {
               "long_name" : "Zeytinlik",
               "short_name" : "Zeytinlik",
               "types" : [ "administrative_area_level_4", "political" ]
            },
            {
               "long_name" : "Kepez",
               "short_name" : "Kepez",
               "types" : [ "administrative_area_level_2", "political" ]
            },
            {
               "long_name" : "Antalya",
               "short_name" : "Antalya",
               "types" : [ "administrative_area_level_1", "political" ]
            },
            {
               "long_name" : "Turkey",
               "short_name" : "TR",
               "types" : [ "country", "political" ]
            },
            {
               "long_name" : "07210",
               "short_name" : "07210",
               "types" : [ "postal_code" ]
            }
         ],
         "formatted_address" : "Zeytinlik, 07210 Kepez/Antalya, Turkey",
         "geometry" : {
            "bounds" : {
               "northeast" : {
                  "lat" : 36.9766649,
                  "lng" : 30.7745809
               },
               "southwest" : {
                  "lat" : 36.95232,
                  "lng" : 30.74424609999999
               }
            },
            "location" : {
               "lat" : 36.9656488,
               "lng" : 30.7608567
            },
            "location_type" : "APPROXIMATE",
            "viewport" : {
               "northeast" : {
                  "lat" : 36.9766649,
                  "lng" : 30.7745809
               },
               "southwest" : {
                  "lat" : 36.95232,
                  "lng" : 30.74424609999999
               }
            }
         },
         "place_id" : "ChIJI5nOGoiGwxQRI2tUzqTJO14",
         "types" : [ "administrative_area_level_4", "political" ]
      },
      {
         "address_components" : [
            {
               "long_name" : "07210",
               "short_name" : "07210",
               "types" : [ "postal_code" ]
            },
            {
               "long_name" : "Kepez",
               "short_name" : "Kepez",
               "types" : [ "administrative_area_level_2", "political" ]
            },
            {
               "long_name" : "Antalya",
               "short_name" : "Antalya",
               "types" : [ "administrative_area_level_1", "political" ]
            },
            {
               "long_name" : "Turkey",
               "short_name" : "TR",
               "types" : [ "country", "political" ]
            }
         ],
         "formatted_address" : "07210 Kepez/Antalya, Turkey",
         "geometry" : {
            "bounds" : {
               "northeast" : {
                  "lat" : 36.9777081,
                  "lng" : 30.7745809
               },
               "southwest" : {
                  "lat" : 36.949978,
                  "lng" : 30.74400809999999
               }
            },
            "location" : {
               "lat" : 36.9656488,
               "lng" : 30.7608567
            },
            "location_type" : "APPROXIMATE",
            "viewport" : {
               "northeast" : {
                  "lat" : 36.9777081,
                  "lng" : 30.7745809
               },
               "southwest" : {
                  "lat" : 36.949978,
                  "lng" : 30.74400809999999
               }
            }
         },
         "place_id" : "ChIJi_AaC4iGwxQR2_v3tlrOScY",
         "types" : [ "postal_code" ]
      },
      {
         "address_components" : [
            {
               "long_name" : "Antalya",
               "short_name" : "Antalya",
               "types" : [ "locality", "political" ]
            },
            {
               "long_name" : "Antalya",
               "short_name" : "Antalya",
               "types" : [ "administrative_area_level_1", "political" ]
            },
            {
               "long_name" : "Turkey",
               "short_name" : "TR",
               "types" : [ "country", "political" ]
            }
         ],
         "formatted_address" : "Antalya, Turkey",
         "geometry" : {
            "bounds" : {
               "northeast" : {
                  "lat" : 36.9755861,
                  "lng" : 30.855251
               },
               "southwest" : {
                  "lat" : 36.820289,
                  "lng" : 30.5809591
               }
            },
            "location" : {
               "lat" : 36.8968908,
               "lng" : 30.7133233
            },
            "location_type" : "APPROXIMATE",
            "viewport" : {
               "northeast" : {
                  "lat" : 36.9755861,
                  "lng" : 30.855251
               },
               "southwest" : {
                  "lat" : 36.820289,
                  "lng" : 30.5809591
               }
            }
         },
         "place_id" : "ChIJwa2t3a6awxQRMy7j-XOfxpU",
         "types" : [ "locality", "political" ]
      },
      {
         "address_components" : [
            {
               "long_name" : "Kepez",
               "short_name" : "Kepez",
               "types" : [ "administrative_area_level_2", "political" ]
            },
            {
               "long_name" : "Antalya",
               "short_name" : "Antalya",
               "types" : [ "administrative_area_level_1", "political" ]
            },
            {
               "long_name" : "Turkey",
               "short_name" : "TR",
               "types" : [ "country", "political" ]
            }
         ],
         "formatted_address" : "Kepez/Antalya, Turkey",
         "geometry" : {
            "bounds" : {
               "northeast" : {
                  "lat" : 37.169391,
                  "lng" : 30.80611309999999
               },
               "southwest" : {
                  "lat" : 36.893774,
                  "lng" : 30.5900381
               }
            },
            "location" : {
               "lat" : 36.9934776,
               "lng" : 30.6890055
            },
            "location_type" : "APPROXIMATE",
            "viewport" : {
               "northeast" : {
                  "lat" : 37.169391,
                  "lng" : 30.80611309999999
               },
               "southwest" : {
                  "lat" : 36.893774,
                  "lng" : 30.5900381
               }
            }
         },
         "place_id" : "ChIJa8ww_m6IwxQRBJgo9goGFhQ",
         "types" : [ "administrative_area_level_2", "political" ]
      },
      {
         "address_components" : [
            {
               "long_name" : "Antalya",
               "short_name" : "Antalya",
               "types" : [ "administrative_area_level_1", "political" ]
            },
            {
               "long_name" : "Turkey",
               "short_name" : "TR",
               "types" : [ "country", "political" ]
            }
         ],
         "formatted_address" : "Antalya, Turkey",
         "geometry" : {
            "bounds" : {
               "northeast" : {
                  "lat" : 37.442089,
                  "lng" : 32.733751
               },
               "southwest" : {
                  "lat" : 36.092439,
                  "lng" : 29.259912
               }
            },
            "location" : {
               "lat" : 37.09516720000001,
               "lng" : 31.0793705
            },
            "location_type" : "APPROXIMATE",
            "viewport" : {
               "northeast" : {
                  "lat" : 37.442089,
                  "lng" : 32.733751
               },
               "southwest" : {
                  "lat" : 36.092439,
                  "lng" : 29.259912
               }
            }
         },
         "place_id" : "ChIJs09LsqQrwBQRogQIK8fWlfI",
         "types" : [ "administrative_area_level_1", "political" ]
      },
      {
         "address_components" : [
            {
               "long_name" : "Turkey",
               "short_name" : "TR",
               "types" : [ "country", "political" ]
            }
         ],
         "formatted_address" : "Turkey",
         "geometry" : {
            "bounds" : {
               "northeast" : {
                  "lat" : 42.3666999,
                  "lng" : 44.8178449
               },
               "southwest" : {
                  "lat" : 35.808592,
                  "lng" : 25.5377
               }
            },
            "location" : {
               "lat" : 38.963745,
               "lng" : 35.243322
            },
            "location_type" : "APPROXIMATE",
            "viewport" : {
               "northeast" : {
                  "lat" : 42.3666999,
                  "lng" : 44.8178449
               },
               "southwest" : {
                  "lat" : 35.808592,
                  "lng" : 25.5377
               }
            }
         },
         "place_id" : "ChIJcSZPllwVsBQRKl9iKtTb2UA",
         "types" : [ "country", "political" ]
      }
   ],
   "status" : "OK"
}
