{
   "plus_code" : {
      "compound_code" : "PR8H+C5 Gölcük/Kocaeli, Turkey",
      "global_code" : "8GGFPR8H+C5"
   },
   "results" : [
      {
         "address_components" : [
            {
               "long_name" : "No:202/A",
               "short_name" : "No:202/A",
               "types" : [ "street_number" ]
            },
            {
               "long_name" : "Atatürk Bulvarı",
               "short_name" : "Atatürk Blv.",
               "types" : [ "route" ]
            },
            {
               "long_name" : "Şehitler",
               "short_name" : "Şehitler",
               "types" : [ "administrative_area_level_4", "political" ]
            },
            {
               "long_name" : "Gölcük",
               "short_name" : "Gölcük",
               "types" : [ "administrative_area_level_2", "political" ]
            },
            {
               "long_name" : "Kocaeli",
               "short_name" : "Kocaeli",
               "types" : [ "administrative_area_level_1", "political" ]
            },
            {
               "long_name" : "Turkey",
               "short_name" : "TR",
               "types" : [ "country", "political" ]
            },
            {
               "long_name" : "41650",
               "short_name" : "41650",
               "types" : [ "postal_code" ]
            }
         ],
         "formatted_address" : "Şehitler, Atatürk Blv. No:202/A, 41650 Gölcük/Kocaeli, Turkey",
         "geometry" : {
            "location" : {
               "lat" : 40.7160221,
               "lng" : 29.8278897
            },
            "location_type" : "ROOFTOP",
            "viewport" : {
               "northeast" : {
                  "lat" : 40.7173710802915,
                  "lng" : 29.8292386802915
               },
               "southwest" : {
                  "lat" : 40.7146731197085,
                  "lng" : 29.8265407197085
               }
            }
         },
         "place_id" : "ChIJZQL63hVByxQR-vByBQC0wA4",
         "plus_code" : {
            "compound_code" : "PR8H+C5 Gölcük/Kocaeli, Turkey",
            "global_code" : "8GGFPR8H+C5"
         },
         "types" : [ "establishment", "point_of_interest", "store" ]
      },
      {
         "address_components" : [
            {
               "long_name" : "202",
               "short_name" : "202",
               "types" : [ "street_number" ]
            },
            {
               "long_name" : "Atatürk Bulvarı",
               "short_name" : "Atatürk Blv.",
               "types" : [ "route" ]
            },
            {
               "long_name" : "Şehitler",
               "short_name" : "Şehitler",
               "types" : [ "administrative_area_level_4", "political" ]
            },
            {
               "long_name" : "Gölcük",
               "short_name" : "Gölcük",
               "types" : [ "administrative_area_level_2", "political" ]
            },
            {
               "long_name" : "Kocaeli",
               "short_name" : "Kocaeli",
               "types" : [ "administrative_area_level_1", "political" ]
            },
            {
               "long_name" : "Turkey",
               "short_name" : "TR",
               "types" : [ "country", "political" ]
            },
            {
               "long_name" : "41650",
               "short_name" : "41650",
               "types" : [ "postal_code" ]
            }
         ],
         "formatted_address" : "Şehitler, Atatürk Blv. No:202, 41650 Gölcük/Kocaeli, Turkey",
         "geometry" : {
            "location" : {
               "lat" : 40.7160221,
               "lng" : 29.8278897
            },
            "location_type" : "ROOFTOP",
            "viewport" : {
               "northeast" : {
                  "lat" : 40.7173710802915,
                  "lng" : 29.8292386802915
               },
               "southwest" : {
                  "lat" : 40.7146731197085,
                  "lng" : 29.8265407197085
               }
            }
         },
         "place_id" : "ChIJBTHg3dNAyxQR_VwwEou480M",
         "plus_code" : {
            "compound_code" : "PR8H+C5 Gölcük/Kocaeli, Turkey",
            "global_code" : "8GGFPR8H+C5"
         },
         "types" : [ "street_address" ]
      },
      {
         "address_components" : [
            {
               "long_name" : "202",
               "short_name" : "202",
               "types" : [ "street_number" ]
            },
            {
               "long_name" : "D130",
               "short_name" : "D130",
               "types" : [ "route" ]
            },
            {
               "long_name" : "Şehitler",
               "short_name" : "Şehitler",
               "types" : [ "administrative_area_level_4", "political" ]
            },
            {
               "long_name" : "Gölcük",
               "short_name" : "Gölcük",
               "types" : [ "administrative_area_level_2", "political" ]
            },
            {
               "long_name" : "Kocaeli",
               "short_name" : "Kocaeli",
               "types" : [ "administrative_area_level_1", "political" ]
            },
            {
               "long_name" : "Turkey",
               "short_name" : "TR",
               "types" : [ "country", "political" ]
            },
            {
               "long_name" : "41650",
               "short_name" : "41650",
               "types" : [ "postal_code" ]
            }
         ],
         "formatted_address" : "Şehitler, D130 No:202, 41650 Gölcük/Kocaeli, Turkey",
         "geometry" : {
            "location" : {
               "lat" : 40.7160824,
               "lng" : 29.8279149
            },
            "location_type" : "RANGE_INTERPOLATED",
            "viewport" : {
               "northeast" : {
                  "lat" : 40.7174313802915,
                  "lng" : 29.8292638802915
               },
               "southwest" : {
                  "lat" : 40.7147334197085,
                  "lng" : 29.8265659197085
               }
            }
         },
         "place_id" : "EjbFnmVoaXRsZXIsIEQxMzAgTm86MjAyLCA0MTY1MCBHw7ZsY8O8ay9Lb2NhZWxpLCBUdXJrZXkiGxIZChQKEglvLMzb00DLFBGo1zmHn02sbxDKAQ",
         "types" : [ "street_address" ]
      },
      {
         "address_components" : [
            {
               "long_name" : "PR8H+C5",
               "short_name" : "PR8H+C5",
               "types" : [ "plus_code" ]
            },
            {
               "long_name" : "Gölcük",
               "short_name" : "Gölcük",
               "types" : [ "administrative_area_level_2", "political" ]
            },
            {
               "long_name" : "Kocaeli",
               "short_name" : "Kocaeli",
               "types" : [ "administrative_area_level_1", "political" ]
            },
            {
               "long_name" : "Turkey",
               "short_name" : "TR",
               "types" : [ "country", "political" ]
            }
         ],
         "formatted_address" : "PR8H+C5 Gölcük/Kocaeli, Turkey",
         "geometry" : {
            "bounds" : {
               "northeast" : {
                  "lat" : 40.716125,
                  "lng" : 29.828
               },
               "southwest" : {
                  "lat" : 40.716,
                  "lng" : 29.827875
               }
            },
            "location" : {
               "lat" : 40.7160376,
               "lng" : 29.8278809
            },
            "location_type" : "GEOMETRIC_CENTER",
            "viewport" : {
               "northeast" : {
                  "lat" : 40.7174114802915,
                  "lng" : 29.8292864802915
               },
               "southwest" : {
                  "lat" : 40.7147135197085,
                  "lng" : 29.8265885197085
               }
            }
         },
         "place_id" : "GhIJaVq9HqdbREARqnuuAPDTPUA",
         "plus_code" : {
            "compound_code" : "PR8H+C5 Gölcük/Kocaeli, Turkey",
            "global_code" : "8GGFPR8H+C5"
         },
         "types" : [ "plus_code" ]
      },
      {
         "address_components" : [
            {
               "long_name" : "190-202",
               "short_name" : "190-202",
               "types" : [ "street_number" ]
            },
            {
               "long_name" : "Atatürk Bulvarı",
               "short_name" : "D130",
               "types" : [ "route" ]
            },
            {
               "long_name" : "Şehitler",
               "short_name" : "Şehitler",
               "types" : [ "administrative_area_level_4", "political" ]
            },
            {
               "long_name" : "Gölcük",
               "short_name" : "Gölcük",
               "types" : [ "administrative_area_level_2", "political" ]
            },
            {
               "long_name" : "Kocaeli",
               "short_name" : "Kocaeli",
               "types" : [ "administrative_area_level_1", "political" ]
            },
            {
               "long_name" : "Turkey",
               "short_name" : "TR",
               "types" : [ "country", "political" ]
            },
            {
               "long_name" : "41650",
               "short_name" : "41650",
               "types" : [ "postal_code" ]
            }
         ],
         "formatted_address" : "Şehitler, D130 190-202, 41650 Gölcük/Kocaeli, Turkey",
         "geometry" : {
            "bounds" : {
               "northeast" : {
                  "lat" : 40.71635149999999,
                  "lng" : 29.8280851
               },
               "southwest" : {
                  "lat" : 40.7160415,
                  "lng" : 29.8267951
               }
            },
            "location" : {
               "lat" : 40.7161965,
               "lng" : 29.8274401
            },
            "location_type" : "GEOMETRIC_CENTER",
            "viewport" : {
               "northeast" : {
                  "lat" : 40.7175454802915,
                  "lng" : 29.8287890802915
               },
               "southwest" : {
                  "lat" : 40.7148475197085,
                  "lng" : 29.8260911197085
               }
            }
         },
         "place_id" : "ChIJbyzM29NAyxQRqNc5h59NrG8",
         "types" : [ "route" ]
      },
      {
         "address_components" : [
            {
               "long_name" : "Şehitler",
               "short_name" : "Şehitler",
               "types" : [ "administrative_area_level_4", "political" ]
            },
            {
               "long_name" : "Gölcük",
               "short_name" : "Gölcük",
               "types" : [ "administrative_area_level_2", "political" ]
            },
            {
               "long_name" : "Kocaeli",
               "short_name" : "Kocaeli",
               "types" : [ "administrative_area_level_1", "political" ]
            },
            {
               "long_name" : "Turkey",
               "short_name" : "TR",
               "types" : [ "country", "political" ]
            },
            {
               "long_name" : "41650",
               "short_name" : "41650",
               "types" : [ "postal_code" ]
            }
         ],
         "formatted_address" : "Şehitler, 41650 Gölcük/Kocaeli, Turkey",
         "geometry" : {
            "bounds" : {
               "northeast" : {
                  "lat" : 40.7167511,
                  "lng" : 29.832758
               },
               "southwest" : {
                  "lat" : 40.706421,
                  "lng" : 29.818334
               }
            },
            "location" : {
               "lat" : 40.7130973,
               "lng" : 29.8251023
            },
            "location_type" : "APPROXIMATE",
            "viewport" : {
               "northeast" : {
                  "lat" : 40.7167511,
                  "lng" : 29.832758
               },
               "southwest" : {
                  "lat" : 40.706421,
                  "lng" : 29.818334
               }
            }
         },
         "place_id" : "ChIJ-dPMndpAyxQR1MSEX-xxbrc",
         "types" : [ "administrative_area_level_4", "political" ]
      },
      {
         "address_components" : [
            {
               "long_name" : "41650",
               "short_name" : "41650",
               "types" : [ "postal_code" ]
            },
            {
               "long_name" : "Şehitler",
               "short_name" : "Şehitler",
               "types" : [ "administrative_area_level_4", "political" ]
            },
            {
               "long_name" : "Gölcük",
               "short_name" : "Gölcük",
               "types" : [ "administrative_area_level_2", "political" ]
            },
            {
               "long_name" : "Kocaeli",
               "short_name" : "Kocaeli",
               "types" : [ "administrative_area_level_1", "political" ]
            },
            {
               "long_name" : "Turkey",
               "short_name" : "TR",
               "types" : [ "country", "political" ]
            }
         ],
         "formatted_address" : "Şehitler, 41650 Gölcük/Kocaeli, Turkey",
         "geometry" : {
            "bounds" : {
               "northeast" : {
                  "lat" : 40.7167511,
                  "lng" : 29.832758
               },
               "southwest" : {
                  "lat" : 40.706421,
                  "lng" : 29.818334
               }
            },
            "location" : {
               "lat" : 40.7130973,
               "lng" : 29.8251023
            },
            "location_type" : "APPROXIMATE",
            "viewport" : {
               "northeast" : {
                  "lat" : 40.7167511,
                  "lng" : 29.832758
               },
               "southwest" : {
                  "lat" : 40.706421,
                  "lng" : 29.818334
               }
            }
         },
         "place_id" : "ChIJ0_wUnNpAyxQRZuo40kUzBdE",
         "types" : [ "postal_code" ]
      },
      {
         "address_components" : [
            {
               "long_name" : "Gölcük",
               "short_name" : "Gölcük",
               "types" : [ "locality", "political" ]
            },
            {
               "long_name" : "Panayır",
               "short_name" : "Panayır",
               "types" : [ "administrative_area_level_4", "political" ]
            },
            {
               "long_name" : "Gölcük",
               "short_name" : "Gölcük",
               "types" : [ "administrative_area_level_2", "political" ]
            },
            {
               "long_name" : "Kocaeli",
               "short_name" : "Kocaeli",
               "types" : [ "administrative_area_level_1", "political" ]
            },
            {
               "long_name" : "Turkey",
               "short_name" : "TR",
               "types" : [ "country", "political" ]
            }
         ],
         "formatted_address" : "Gölcük, Panayır, Gölcük/Kocaeli, Turkey",
         "geometry" : {
            "bounds" : {
               "northeast" : {
                  "lat" : 40.733784,
                  "lng" : 29.99612489999999
               },
               "southwest" : {
                  "lat" : 40.657259,
                  "lng" : 29.725403
               }
            },
            "location" : {
               "lat" : 40.7167517,
               "lng" : 29.8194875
            },
            "location_type" : "APPROXIMATE",
            "viewport" : {
               "northeast" : {
                  "lat" : 40.733784,
                  "lng" : 29.99612489999999
               },
               "southwest" : {
                  "lat" : 40.657259,
                  "lng" : 29.725403
               }
            }
         },
         "place_id" : "ChIJ-XDd5EBByxQRxL4oZiJh9D8",
         "types" : [ "locality", "political" ]
      },
      {
         "address_components" : [
            {
               "long_name" : "Gölcük",
               "short_name" : "Gölcük",
               "types" : [ "administrative_area_level_2", "political" ]
            },
            {
               "long_name" : "Kocaeli",
               "short_name" : "Kocaeli",
               "types" : [ "administrative_area_level_1", "political" ]
            },
            {
               "long_name" : "Turkey",
               "short_name" : "TR",
               "types" : [ "country", "political" ]
            }
         ],
         "formatted_address" : "Gölcük/Kocaeli, Turkey",
         "geometry" : {
            "bounds" : {
               "northeast" : {
                  "lat" : 40.73037799999999,
                  "lng" : 29.908152
               },
               "southwest" : {
                  "lat" : 40.572436,
                  "lng" : 29.6788819
               }
            },
            "location" : {
               "lat" : 40.6692681,
               "lng" : 29.8120795
            },
            "location_type" : "APPROXIMATE",
            "viewport" : {
               "northeast" : {
                  "lat" : 40.73037799999999,
                  "lng" : 29.908152
               },
               "southwest" : {
                  "lat" : 40.572436,
                  "lng" : 29.6788819
               }
            }
         },
         "place_id" : "ChIJe7_p2L9AyxQRG7_N0V9Jb7Y",
         "types" : [ "administrative_area_level_2", "political" ]
      },
      {
         "address_components" : [
            {
               "long_name" : "Kocaeli",
               "short_name" : "Kocaeli",
               "types" : [ "administrative_area_level_1", "political" ]
            },
            {
               "long_name" : "Turkey",
               "short_name" : "TR",
               "types" : [ "country", "political" ]
            }
         ],
         "formatted_address" : "Kocaeli, Turkey",
         "geometry" : {
            "bounds" : {
               "northeast" : {
                  "lat" : 41.20976,
                  "lng" : 30.367743
               },
               "southwest" : {
                  "lat" : 40.524151,
                  "lng" : 29.3331261
               }
            },
            "location" : {
               "lat" : 40.8532704,
               "lng" : 29.8815203
            },
            "location_type" : "APPROXIMATE",
            "viewport" : {
               "northeast" : {
                  "lat" : 41.20976,
                  "lng" : 30.367743
               },
               "southwest" : {
                  "lat" : 40.524151,
                  "lng" : 29.3331261
               }
            }
         },
         "place_id" : "ChIJQ8zKb5QgyxQRWdhW642zLKg",
         "types" : [ "administrative_area_level_1", "political" ]
      },
      {
         "address_components" : [
            {
               "long_name" : "Turkey",
               "short_name" : "TR",
               "types" : [ "country", "political" ]
            }
         ],
         "formatted_address" : "Turkey",
         "geometry" : {
            "bounds" : {
               "northeast" : {
                  "lat" : 42.3666999,
                  "lng" : 44.8178449
               },
               "southwest" : {
                  "lat" : 35.808592,
                  "lng" : 25.5377
               }
            },
            "location" : {
               "lat" : 38.963745,
               "lng" : 35.243322
            },
            "location_type" : "APPROXIMATE",
            "viewport" : {
               "northeast" : {
                  "lat" : 42.3666999,
                  "lng" : 44.8178449
               },
               "southwest" : {
                  "lat" : 35.808592,
                  "lng" : 25.5377
               }
            }
         },
         "place_id" : "ChIJcSZPllwVsBQRKl9iKtTb2UA",
         "types" : [ "country", "political" ]
      }
   ],
   "status" : "OK"
}
