{
   "plus_code" : {
      "compound_code" : "QX9C+JR İzmit/Kocaeli, Turkey",
      "global_code" : "8GGFQX9C+JR"
   },
   "results" : [
      {
         "address_components" : [
            {
               "long_name" : "1",
               "short_name" : "1",
               "types" : [ "street_number" ]
            },
            {
               "long_name" : "Salkım Söğüt Caddesi",
               "short_name" : "Salkım Söğüt Cd.",
               "types" : [ "route" ]
            },
            {
               "long_name" : "Yahyakaptan",
               "short_name" : "Yahyakaptan",
               "types" : [ "administrative_area_level_4", "political" ]
            },
            {
               "long_name" : "İzmit",
               "short_name" : "İzmit",
               "types" : [ "administrative_area_level_2", "political" ]
            },
            {
               "long_name" : "Kocaeli",
               "short_name" : "Kocaeli",
               "types" : [ "administrative_area_level_1", "political" ]
            },
            {
               "long_name" : "Turkey",
               "short_name" : "TR",
               "types" : [ "country", "political" ]
            },
            {
               "long_name" : "41050",
               "short_name" : "41050",
               "types" : [ "postal_code" ]
            }
         ],
         "formatted_address" : "Yahyakaptan, Salkım Söğüt Cd. No:1, 41050 İzmit/Kocaeli, Turkey",
         "geometry" : {
            "location" : {
               "lat" : 40.7691469,
               "lng" : 29.97205
            },
            "location_type" : "ROOFTOP",
            "viewport" : {
               "northeast" : {
                  "lat" : 40.7704958802915,
                  "lng" : 29.9733989802915
               },
               "southwest" : {
                  "lat" : 40.7677979197085,
                  "lng" : 29.9707010197085
               }
            }
         },
         "place_id" : "ChIJ_V58sOFPyxQRLyu1vv0Sjjs",
         "plus_code" : {
            "compound_code" : "QX9C+MR İzmit/Kocaeli, Turkey",
            "global_code" : "8GGFQX9C+MR"
         },
         "types" : [ "street_address" ]
      },
      {
         "address_components" : [
            {
               "long_name" : "No:4",
               "short_name" : "No:4",
               "types" : [ "street_number" ]
            },
            {
               "long_name" : "Eylül Sokak",
               "short_name" : "Eylül Sk.",
               "types" : [ "route" ]
            },
            {
               "long_name" : "Yahyakaptan",
               "short_name" : "Yahyakaptan",
               "types" : [ "administrative_area_level_4", "political" ]
            },
            {
               "long_name" : "İzmit",
               "short_name" : "İzmit",
               "types" : [ "administrative_area_level_2", "political" ]
            },
            {
               "long_name" : "Kocaeli",
               "short_name" : "Kocaeli",
               "types" : [ "administrative_area_level_1", "political" ]
            },
            {
               "long_name" : "Turkey",
               "short_name" : "TR",
               "types" : [ "country", "political" ]
            },
            {
               "long_name" : "41050",
               "short_name" : "41050",
               "types" : [ "postal_code" ]
            }
         ],
         "formatted_address" : "Yahyakaptan, Eylül Sk. No:4, 41050 İzmit/Kocaeli, Turkey",
         "geometry" : {
            "location" : {
               "lat" : 40.769583,
               "lng" : 29.971786
            },
            "location_type" : "ROOFTOP",
            "viewport" : {
               "northeast" : {
                  "lat" : 40.77093198029151,
                  "lng" : 29.9731349802915
               },
               "southwest" : {
                  "lat" : 40.76823401970851,
                  "lng" : 29.9704370197085
               }
            }
         },
         "place_id" : "ChIJLa-9reFPyxQR2DGipWSWY3c",
         "plus_code" : {
            "compound_code" : "QX9C+RP İzmit/Kocaeli, Turkey",
            "global_code" : "8GGFQX9C+RP"
         },
         "types" : [ "establishment", "lodging", "point_of_interest" ]
      },
      {
         "address_components" : [
            {
               "long_name" : "8",
               "short_name" : "8",
               "types" : [ "street_number" ]
            },
            {
               "long_name" : "Salkım Söğüt Caddesi",
               "short_name" : "Salkım Söğüt Cd.",
               "types" : [ "route" ]
            },
            {
               "long_name" : "Yahyakaptan",
               "short_name" : "Yahyakaptan",
               "types" : [ "administrative_area_level_4", "political" ]
            },
            {
               "long_name" : "İzmit",
               "short_name" : "İzmit",
               "types" : [ "administrative_area_level_2", "political" ]
            },
            {
               "long_name" : "Kocaeli",
               "short_name" : "Kocaeli",
               "types" : [ "administrative_area_level_1", "political" ]
            },
            {
               "long_name" : "Turkey",
               "short_name" : "TR",
               "types" : [ "country", "political" ]
            },
            {
               "long_name" : "41050",
               "short_name" : "41050",
               "types" : [ "postal_code" ]
            }
         ],
         "formatted_address" : "Yahyakaptan, Salkım Söğüt Cd. No:8, 41050 İzmit/Kocaeli, Turkey",
         "geometry" : {
            "bounds" : {
               "northeast" : {
                  "lat" : 40.77012999999999,
                  "lng" : 29.9733111
               },
               "southwest" : {
                  "lat" : 40.769351,
                  "lng" : 29.9725289
               }
            },
            "location" : {
               "lat" : 40.7696324,
               "lng" : 29.9727887
            },
            "location_type" : "ROOFTOP",
            "viewport" : {
               "northeast" : {
                  "lat" : 40.7710894802915,
                  "lng" : 29.9742689802915
               },
               "southwest" : {
                  "lat" : 40.7683915197085,
                  "lng" : 29.9715710197085
               }
            }
         },
         "place_id" : "ChIJHfSnNuBPyxQReZe0dBHF9PY",
         "types" : [ "premise" ]
      },
      {
         "address_components" : [
            {
               "long_name" : "4",
               "short_name" : "4",
               "types" : [ "street_number" ]
            },
            {
               "long_name" : "Salkım Söğüt Caddesi",
               "short_name" : "Salkım Söğüt Cd.",
               "types" : [ "route" ]
            },
            {
               "long_name" : "Yahyakaptan",
               "short_name" : "Yahyakaptan",
               "types" : [ "administrative_area_level_4", "political" ]
            },
            {
               "long_name" : "İzmit",
               "short_name" : "İzmit",
               "types" : [ "administrative_area_level_2", "political" ]
            },
            {
               "long_name" : "Kocaeli",
               "short_name" : "Kocaeli",
               "types" : [ "administrative_area_level_1", "political" ]
            },
            {
               "long_name" : "Turkey",
               "short_name" : "TR",
               "types" : [ "country", "political" ]
            },
            {
               "long_name" : "41050",
               "short_name" : "41050",
               "types" : [ "postal_code" ]
            }
         ],
         "formatted_address" : "Yahyakaptan, Salkım Söğüt Cd. No:4, 41050 İzmit/Kocaeli, Turkey",
         "geometry" : {
            "location" : {
               "lat" : 40.7692208,
               "lng" : 29.9723484
            },
            "location_type" : "RANGE_INTERPOLATED",
            "viewport" : {
               "northeast" : {
                  "lat" : 40.7705697802915,
                  "lng" : 29.9736973802915
               },
               "southwest" : {
                  "lat" : 40.7678718197085,
                  "lng" : 29.9709994197085
               }
            }
         },
         "place_id" : "EkRZYWh5YWthcHRhbiwgU2Fsa8SxbSBTw7bEn8O8dCBDZC4gTm86NCwgNDEwNTAgxLB6bWl0L0tvY2FlbGksIFR1cmtleSIaEhgKFAoSCXMn67nhT8sUEaGllXfltuVDEAQ",
         "types" : [ "street_address" ]
      },
      {
         "address_components" : [
            {
               "long_name" : "QX9C+JR",
               "short_name" : "QX9C+JR",
               "types" : [ "plus_code" ]
            },
            {
               "long_name" : "İzmit",
               "short_name" : "İzmit",
               "types" : [ "administrative_area_level_2", "political" ]
            },
            {
               "long_name" : "Kocaeli",
               "short_name" : "Kocaeli",
               "types" : [ "administrative_area_level_1", "political" ]
            },
            {
               "long_name" : "Turkey",
               "short_name" : "TR",
               "types" : [ "country", "political" ]
            }
         ],
         "formatted_address" : "QX9C+JR İzmit/Kocaeli, Turkey",
         "geometry" : {
            "bounds" : {
               "northeast" : {
                  "lat" : 40.769125,
                  "lng" : 29.972125
               },
               "southwest" : {
                  "lat" : 40.769,
                  "lng" : 29.972
               }
            },
            "location" : {
               "lat" : 40.76910180000001,
               "lng" : 29.9720764
            },
            "location_type" : "ROOFTOP",
            "viewport" : {
               "northeast" : {
                  "lat" : 40.77041148029149,
                  "lng" : 29.9734114802915
               },
               "southwest" : {
                  "lat" : 40.7677135197085,
                  "lng" : 29.9707135197085
               }
            }
         },
         "place_id" : "GhIJuyWD7XFiREARoja7_9n4PUA",
         "plus_code" : {
            "compound_code" : "QX9C+JR İzmit/Kocaeli, Turkey",
            "global_code" : "8GGFQX9C+JR"
         },
         "types" : [ "plus_code" ]
      },
      {
         "address_components" : [
            {
               "long_name" : "1",
               "short_name" : "1",
               "types" : [ "street_number" ]
            },
            {
               "long_name" : "Salkım Söğüt Caddesi",
               "short_name" : "Salkım Söğüt Cd.",
               "types" : [ "route" ]
            },
            {
               "long_name" : "Yahyakaptan",
               "short_name" : "Yahyakaptan",
               "types" : [ "administrative_area_level_4", "political" ]
            },
            {
               "long_name" : "İzmit",
               "short_name" : "İzmit",
               "types" : [ "administrative_area_level_2", "political" ]
            },
            {
               "long_name" : "Kocaeli",
               "short_name" : "Kocaeli",
               "types" : [ "administrative_area_level_1", "political" ]
            },
            {
               "long_name" : "Turkey",
               "short_name" : "TR",
               "types" : [ "country", "political" ]
            },
            {
               "long_name" : "41050",
               "short_name" : "41050",
               "types" : [ "postal_code" ]
            }
         ],
         "formatted_address" : "Yahyakaptan, Salkım Söğüt Cd. No:1, 41050 İzmit/Kocaeli, Turkey",
         "geometry" : {
            "bounds" : {
               "northeast" : {
                  "lat" : 40.769385,
                  "lng" : 29.9723538
               },
               "southwest" : {
                  "lat" : 40.7684977,
                  "lng" : 29.9723246
               }
            },
            "location" : {
               "lat" : 40.7689414,
               "lng" : 29.9723392
            },
            "location_type" : "GEOMETRIC_CENTER",
            "viewport" : {
               "northeast" : {
                  "lat" : 40.7702903302915,
                  "lng" : 29.9736881802915
               },
               "southwest" : {
                  "lat" : 40.7675923697085,
                  "lng" : 29.9709902197085
               }
            }
         },
         "place_id" : "ChIJcyfrueFPyxQRoKWVd-W25UM",
         "types" : [ "route" ]
      },
      {
         "address_components" : [
            {
               "long_name" : "Yahyakaptan",
               "short_name" : "Yahyakaptan",
               "types" : [ "administrative_area_level_4", "political" ]
            },
            {
               "long_name" : "İzmit",
               "short_name" : "İzmit",
               "types" : [ "administrative_area_level_2", "political" ]
            },
            {
               "long_name" : "Kocaeli",
               "short_name" : "Kocaeli",
               "types" : [ "administrative_area_level_1", "political" ]
            },
            {
               "long_name" : "Turkey",
               "short_name" : "TR",
               "types" : [ "country", "political" ]
            },
            {
               "long_name" : "41050",
               "short_name" : "41050",
               "types" : [ "postal_code" ]
            }
         ],
         "formatted_address" : "Yahyakaptan, 41050 İzmit/Kocaeli, Turkey",
         "geometry" : {
            "bounds" : {
               "northeast" : {
                  "lat" : 40.7839,
                  "lng" : 29.9861191
               },
               "southwest" : {
                  "lat" : 40.75918,
                  "lng" : 29.966256
               }
            },
            "location" : {
               "lat" : 40.7683026,
               "lng" : 29.9769441
            },
            "location_type" : "APPROXIMATE",
            "viewport" : {
               "northeast" : {
                  "lat" : 40.7839,
                  "lng" : 29.9861191
               },
               "southwest" : {
                  "lat" : 40.75918,
                  "lng" : 29.966256
               }
            }
         },
         "place_id" : "ChIJF-GoFR5QyxQRoirN3zFyhUE",
         "types" : [ "administrative_area_level_4", "political" ]
      },
      {
         "address_components" : [
            {
               "long_name" : "41050",
               "short_name" : "41050",
               "types" : [ "postal_code" ]
            },
            {
               "long_name" : "İzmit",
               "short_name" : "İzmit",
               "types" : [ "administrative_area_level_2", "political" ]
            },
            {
               "long_name" : "Kocaeli",
               "short_name" : "Kocaeli",
               "types" : [ "administrative_area_level_1", "political" ]
            },
            {
               "long_name" : "Turkey",
               "short_name" : "TR",
               "types" : [ "country", "political" ]
            }
         ],
         "formatted_address" : "41050 İzmit/Kocaeli, Turkey",
         "geometry" : {
            "bounds" : {
               "northeast" : {
                  "lat" : 40.785357,
                  "lng" : 29.9861191
               },
               "southwest" : {
                  "lat" : 40.75918,
                  "lng" : 29.940343
               }
            },
            "location" : {
               "lat" : 40.7684633,
               "lng" : 29.9682719
            },
            "location_type" : "APPROXIMATE",
            "viewport" : {
               "northeast" : {
                  "lat" : 40.785357,
                  "lng" : 29.9861191
               },
               "southwest" : {
                  "lat" : 40.75918,
                  "lng" : 29.940343
               }
            }
         },
         "place_id" : "ChIJGY4Uy4hPyxQRYvYkVyQ5zFo",
         "types" : [ "postal_code" ]
      },
      {
         "address_components" : [
            {
               "long_name" : "İzmit",
               "short_name" : "İzmit",
               "types" : [ "locality", "political" ]
            },
            {
               "long_name" : "İzmit",
               "short_name" : "İzmit",
               "types" : [ "administrative_area_level_2", "political" ]
            },
            {
               "long_name" : "Kocaeli",
               "short_name" : "Kocaeli",
               "types" : [ "administrative_area_level_1", "political" ]
            },
            {
               "long_name" : "Turkey",
               "short_name" : "TR",
               "types" : [ "country", "political" ]
            }
         ],
         "formatted_address" : "İzmit, Kocaeli, Turkey",
         "geometry" : {
            "bounds" : {
               "northeast" : {
                  "lat" : 40.805401,
                  "lng" : 30.014834
               },
               "southwest" : {
                  "lat" : 40.736827,
                  "lng" : 29.8541681
               }
            },
            "location" : {
               "lat" : 40.7654408,
               "lng" : 29.9408089
            },
            "location_type" : "APPROXIMATE",
            "viewport" : {
               "northeast" : {
                  "lat" : 40.805401,
                  "lng" : 30.014834
               },
               "southwest" : {
                  "lat" : 40.736827,
                  "lng" : 29.8541681
               }
            }
         },
         "place_id" : "ChIJnftLZGZPyxQRuX5rWOcOaYI",
         "types" : [ "locality", "political" ]
      },
      {
         "address_components" : [
            {
               "long_name" : "İzmit",
               "short_name" : "İzmit",
               "types" : [ "administrative_area_level_2", "political" ]
            },
            {
               "long_name" : "Kocaeli",
               "short_name" : "Kocaeli",
               "types" : [ "administrative_area_level_1", "political" ]
            },
            {
               "long_name" : "Turkey",
               "short_name" : "TR",
               "types" : [ "country", "political" ]
            }
         ],
         "formatted_address" : "İzmit/Kocaeli, Turkey",
         "geometry" : {
            "bounds" : {
               "northeast" : {
                  "lat" : 40.971557,
                  "lng" : 30.2639339
               },
               "southwest" : {
                  "lat" : 40.720553,
                  "lng" : 29.8541681
               }
            },
            "location" : {
               "lat" : 40.8506635,
               "lng" : 30.0202964
            },
            "location_type" : "APPROXIMATE",
            "viewport" : {
               "northeast" : {
                  "lat" : 40.971557,
                  "lng" : 30.2639339
               },
               "southwest" : {
                  "lat" : 40.720553,
                  "lng" : 29.8541681
               }
            }
         },
         "place_id" : "ChIJL2DfPLZQyxQRitx6sY9PIGU",
         "types" : [ "administrative_area_level_2", "political" ]
      },
      {
         "address_components" : [
            {
               "long_name" : "Kocaeli",
               "short_name" : "Kocaeli",
               "types" : [ "administrative_area_level_1", "political" ]
            },
            {
               "long_name" : "Turkey",
               "short_name" : "TR",
               "types" : [ "country", "political" ]
            }
         ],
         "formatted_address" : "Kocaeli, Turkey",
         "geometry" : {
            "bounds" : {
               "northeast" : {
                  "lat" : 41.20976,
                  "lng" : 30.367743
               },
               "southwest" : {
                  "lat" : 40.524151,
                  "lng" : 29.3331261
               }
            },
            "location" : {
               "lat" : 40.8532704,
               "lng" : 29.8815203
            },
            "location_type" : "APPROXIMATE",
            "viewport" : {
               "northeast" : {
                  "lat" : 41.20976,
                  "lng" : 30.367743
               },
               "southwest" : {
                  "lat" : 40.524151,
                  "lng" : 29.3331261
               }
            }
         },
         "place_id" : "ChIJQ8zKb5QgyxQRWdhW642zLKg",
         "types" : [ "administrative_area_level_1", "political" ]
      },
      {
         "address_components" : [
            {
               "long_name" : "Turkey",
               "short_name" : "TR",
               "types" : [ "country", "political" ]
            }
         ],
         "formatted_address" : "Turkey",
         "geometry" : {
            "bounds" : {
               "northeast" : {
                  "lat" : 42.3666999,
                  "lng" : 44.8178449
               },
               "southwest" : {
                  "lat" : 35.808592,
                  "lng" : 25.5377
               }
            },
            "location" : {
               "lat" : 38.963745,
               "lng" : 35.243322
            },
            "location_type" : "APPROXIMATE",
            "viewport" : {
               "northeast" : {
                  "lat" : 42.3666999,
                  "lng" : 44.8178449
               },
               "southwest" : {
                  "lat" : 35.808592,
                  "lng" : 25.5377
               }
            }
         },
         "place_id" : "ChIJcSZPllwVsBQRKl9iKtTb2UA",
         "types" : [ "country", "political" ]
      }
   ],
   "status" : "OK"
}
