{
   "plus_code" : {
      "compound_code" : "MR5F+3QW Zavite Mezrası, Konak/Hakkâri Merkez/Hakkari, Turkey",
      "global_code" : "8H95MR5F+3QW"
   },
   "results" : [
      {
         "address_components" : [
            {
               "long_name" : "MR5F+3Q",
               "short_name" : "MR5F+3Q",
               "types" : [ "plus_code" ]
            },
            {
               "long_name" : "Zavite Mezrası",
               "short_name" : "Zavite Mezrası",
               "types" : [ "administrative_area_level_4", "political" ]
            },
            {
               "long_name" : "Konak",
               "short_name" : "Konak",
               "types" : [ "administrative_area_level_3", "political" ]
            },
            {
               "long_name" : "Hakkâri Merkez",
               "short_name" : "Hakkâri Merkez",
               "types" : [ "administrative_area_level_2", "political" ]
            },
            {
               "long_name" : "Hakkari",
               "short_name" : "Hakkari",
               "types" : [ "administrative_area_level_1", "political" ]
            },
            {
               "long_name" : "Turkey",
               "short_name" : "TR",
               "types" : [ "country", "political" ]
            }
         ],
         "formatted_address" : "MR5F+3Q Zavite Mezrası, Konak/Hakkâri Merkez/Hakkari, Turkey",
         "geometry" : {
            "bounds" : {
               "northeast" : {
                  "lat" : 37.65775,
                  "lng" : 43.82450000000001
               },
               "southwest" : {
                  "lat" : 37.657625,
                  "lng" : 43.824375
               }
            },
            "location" : {
               "lat" : 37.6577321,
               "lng" : 43.8244629
            },
            "location_type" : "GEOMETRIC_CENTER",
            "viewport" : {
               "northeast" : {
                  "lat" : 37.6590364802915,
                  "lng" : 43.82578648029151
               },
               "southwest" : {
                  "lat" : 37.65633851970851,
                  "lng" : 43.82308851970851
               }
            }
         },
         "place_id" : "GhIJw4PBkDDUQkAR9iEUAIjpRUA",
         "plus_code" : {
            "compound_code" : "MR5F+3Q Zavite Mezrası, Konak/Hakkâri Merkez/Hakkari, Turkey",
            "global_code" : "8H95MR5F+3Q"
         },
         "types" : [ "plus_code" ]
      },
      {
         "address_components" : [
            {
               "long_name" : "Unnamed Road",
               "short_name" : "Unnamed Road",
               "types" : [ "route" ]
            },
            {
               "long_name" : "Seranüs",
               "short_name" : "Seranüs",
               "types" : [ "administrative_area_level_4", "political" ]
            },
            {
               "long_name" : "Konak",
               "short_name" : "Konak",
               "types" : [ "administrative_area_level_3", "political" ]
            },
            {
               "long_name" : "Hakkâri Merkez",
               "short_name" : "Hakkâri Merkez",
               "types" : [ "administrative_area_level_2", "political" ]
            },
            {
               "long_name" : "Hakkari",
               "short_name" : "Hakkari",
               "types" : [ "administrative_area_level_1", "political" ]
            },
            {
               "long_name" : "Turkey",
               "short_name" : "TR",
               "types" : [ "country", "political" ]
            },
            {
               "long_name" : "30110",
               "short_name" : "30110",
               "types" : [ "postal_code" ]
            }
         ],
         "formatted_address" : "Seranüs, Unnamed Road, 30110 Konak/Hakkâri Merkez/Hakkari, Turkey",
         "geometry" : {
            "bounds" : {
               "northeast" : {
                  "lat" : 37.6462978,
                  "lng" : 43.8361054
               },
               "southwest" : {
                  "lat" : 37.6442651,
                  "lng" : 43.8269159
               }
            },
            "location" : {
               "lat" : 37.6459946,
               "lng" : 43.8313637
            },
            "location_type" : "GEOMETRIC_CENTER",
            "viewport" : {
               "northeast" : {
                  "lat" : 37.6466304302915,
                  "lng" : 43.8361054
               },
               "southwest" : {
                  "lat" : 37.6439324697085,
                  "lng" : 43.8269159
               }
            }
         },
         "place_id" : "ChIJEUvlZEtTDkARfJ9YGol5ygE",
         "types" : [ "route" ]
      },
      {
         "address_components" : [
            {
               "long_name" : "Zavite Mezrası",
               "short_name" : "Zavite Mezrası",
               "types" : [ "administrative_area_level_4", "political" ]
            },
            {
               "long_name" : "Konak",
               "short_name" : "Konak",
               "types" : [ "administrative_area_level_3", "political" ]
            },
            {
               "long_name" : "Hakkâri Merkez",
               "short_name" : "Hakkâri Merkez",
               "types" : [ "administrative_area_level_2", "political" ]
            },
            {
               "long_name" : "Hakkari",
               "short_name" : "Hakkari",
               "types" : [ "administrative_area_level_1", "political" ]
            },
            {
               "long_name" : "Turkey",
               "short_name" : "TR",
               "types" : [ "country", "political" ]
            }
         ],
         "formatted_address" : "Zavite Mezrası, Konak/Hakkâri Merkez/Hakkari, Turkey",
         "geometry" : {
            "bounds" : {
               "northeast" : {
                  "lat" : 37.69797399999999,
                  "lng" : 43.8702469
               },
               "southwest" : {
                  "lat" : 37.5742489,
                  "lng" : 43.7231469
               }
            },
            "location" : {
               "lat" : 37.6178714,
               "lng" : 43.8187819
            },
            "location_type" : "APPROXIMATE",
            "viewport" : {
               "northeast" : {
                  "lat" : 37.69797399999999,
                  "lng" : 43.8702469
               },
               "southwest" : {
                  "lat" : 37.5742489,
                  "lng" : 43.7231469
               }
            }
         },
         "place_id" : "ChIJw_NymbpUDkAR59lQzS_0gjQ",
         "types" : [ "administrative_area_level_4", "political" ]
      },
      {
         "address_components" : [
            {
               "long_name" : "Konak",
               "short_name" : "Konak",
               "types" : [ "administrative_area_level_3", "political" ]
            },
            {
               "long_name" : "Zavite Mezrası",
               "short_name" : "Zavite Mezrası",
               "types" : [ "administrative_area_level_4", "political" ]
            },
            {
               "long_name" : "Hakkâri Merkez",
               "short_name" : "Hakkâri Merkez",
               "types" : [ "administrative_area_level_2", "political" ]
            },
            {
               "long_name" : "Hakkari",
               "short_name" : "Hakkari",
               "types" : [ "administrative_area_level_1", "political" ]
            },
            {
               "long_name" : "Turkey",
               "short_name" : "TR",
               "types" : [ "country", "political" ]
            }
         ],
         "formatted_address" : "Zavite Mezrası, Konak/Hakkâri Merkez/Hakkari, Turkey",
         "geometry" : {
            "bounds" : {
               "northeast" : {
                  "lat" : 37.69797399999999,
                  "lng" : 43.8702469
               },
               "southwest" : {
                  "lat" : 37.5742489,
                  "lng" : 43.7231469
               }
            },
            "location" : {
               "lat" : 37.6178714,
               "lng" : 43.8187819
            },
            "location_type" : "APPROXIMATE",
            "viewport" : {
               "northeast" : {
                  "lat" : 37.69797399999999,
                  "lng" : 43.8702469
               },
               "southwest" : {
                  "lat" : 37.5742489,
                  "lng" : 43.7231469
               }
            }
         },
         "place_id" : "ChIJVS39-GRTDkARCn5dnTpNkeg",
         "types" : [ "administrative_area_level_3", "political" ]
      },
      {
         "address_components" : [
            {
               "long_name" : "30110",
               "short_name" : "30110",
               "types" : [ "postal_code" ]
            },
            {
               "long_name" : "Hakkâri Merkez",
               "short_name" : "Hakkâri Merkez",
               "types" : [ "administrative_area_level_2", "political" ]
            },
            {
               "long_name" : "Hakkari",
               "short_name" : "Hakkari",
               "types" : [ "administrative_area_level_1", "political" ]
            },
            {
               "long_name" : "Turkey",
               "short_name" : "TR",
               "types" : [ "country", "political" ]
            }
         ],
         "formatted_address" : "30110 Hakkâri Merkez/Hakkari, Turkey",
         "geometry" : {
            "bounds" : {
               "northeast" : {
                  "lat" : 37.731181,
                  "lng" : 43.889089
               },
               "southwest" : {
                  "lat" : 37.57911199999999,
                  "lng" : 43.7231469
               }
            },
            "location" : {
               "lat" : 37.6559637,
               "lng" : 43.817753
            },
            "location_type" : "APPROXIMATE",
            "viewport" : {
               "northeast" : {
                  "lat" : 37.731181,
                  "lng" : 43.889089
               },
               "southwest" : {
                  "lat" : 37.57911199999999,
                  "lng" : 43.7231469
               }
            }
         },
         "place_id" : "ChIJOw1tzG5TDkARSE32yQsq5Uk",
         "types" : [ "postal_code" ]
      },
      {
         "address_components" : [
            {
               "long_name" : "Hakkâri Merkez",
               "short_name" : "Hakkâri Merkez",
               "types" : [ "administrative_area_level_2", "political" ]
            },
            {
               "long_name" : "Hakkari",
               "short_name" : "Hakkari",
               "types" : [ "administrative_area_level_1", "political" ]
            },
            {
               "long_name" : "Turkey",
               "short_name" : "TR",
               "types" : [ "country", "political" ]
            }
         ],
         "formatted_address" : "Hakkâri Merkez/Hakkari, Turkey",
         "geometry" : {
            "bounds" : {
               "northeast" : {
                  "lat" : 37.8051731,
                  "lng" : 44.092094
               },
               "southwest" : {
                  "lat" : 37.332045,
                  "lng" : 43.3116549
               }
            },
            "location" : {
               "lat" : 37.521741,
               "lng" : 43.7428063
            },
            "location_type" : "APPROXIMATE",
            "viewport" : {
               "northeast" : {
                  "lat" : 37.8051731,
                  "lng" : 44.092094
               },
               "southwest" : {
                  "lat" : 37.332045,
                  "lng" : 43.3116549
               }
            }
         },
         "place_id" : "ChIJI3_iqtoBD0ARgdl4013dMNQ",
         "types" : [ "administrative_area_level_2", "political" ]
      },
      {
         "address_components" : [
            {
               "long_name" : "Hakkari",
               "short_name" : "Hakkari",
               "types" : [ "administrative_area_level_1", "political" ]
            },
            {
               "long_name" : "Turkey",
               "short_name" : "TR",
               "types" : [ "country", "political" ]
            }
         ],
         "formatted_address" : "Hakkari, Turkey",
         "geometry" : {
            "bounds" : {
               "northeast" : {
                  "lat" : 37.8071309,
                  "lng" : 44.81538
               },
               "southwest" : {
                  "lat" : 36.96285400000001,
                  "lng" : 43.3080798
               }
            },
            "location" : {
               "lat" : 37.4459319,
               "lng" : 43.7449841
            },
            "location_type" : "APPROXIMATE",
            "viewport" : {
               "northeast" : {
                  "lat" : 37.8071309,
                  "lng" : 44.81538
               },
               "southwest" : {
                  "lat" : 36.96285400000001,
                  "lng" : 43.3080798
               }
            }
         },
         "place_id" : "ChIJPxrSRlkAD0ARfKDv0KurOxE",
         "types" : [ "administrative_area_level_1", "political" ]
      },
      {
         "address_components" : [
            {
               "long_name" : "Turkey",
               "short_name" : "TR",
               "types" : [ "country", "political" ]
            }
         ],
         "formatted_address" : "Turkey",
         "geometry" : {
            "bounds" : {
               "northeast" : {
                  "lat" : 42.3666999,
                  "lng" : 44.8178449
               },
               "southwest" : {
                  "lat" : 35.808592,
                  "lng" : 25.5377
               }
            },
            "location" : {
               "lat" : 38.963745,
               "lng" : 35.243322
            },
            "location_type" : "APPROXIMATE",
            "viewport" : {
               "northeast" : {
                  "lat" : 42.3666999,
                  "lng" : 44.8178449
               },
               "southwest" : {
                  "lat" : 35.808592,
                  "lng" : 25.5377
               }
            }
         },
         "place_id" : "ChIJcSZPllwVsBQRKl9iKtTb2UA",
         "types" : [ "country", "political" ]
      }
   ],
   "status" : "OK"
}
