{
   "plus_code" : {
      "compound_code" : "MXW6+3X Başiskele/Kocaeli, Turkey",
      "global_code" : "8GGFMXW6+3X"
   },
   "results" : [
      {
         "address_components" : [
            {
               "long_name" : "No:29",
               "short_name" : "No:29",
               "types" : [ "street_number" ]
            },
            {
               "long_name" : "Bağ Sokak",
               "short_name" : "Bağ Sk.",
               "types" : [ "route" ]
            },
            {
               "long_name" : "Fatih",
               "short_name" : "Fatih",
               "types" : [ "administrative_area_level_4", "political" ]
            },
            {
               "long_name" : "Başiskele",
               "short_name" : "Başiskele",
               "types" : [ "administrative_area_level_2", "political" ]
            },
            {
               "long_name" : "Kocaeli",
               "short_name" : "Kocaeli",
               "types" : [ "administrative_area_level_1", "political" ]
            },
            {
               "long_name" : "Turkey",
               "short_name" : "TR",
               "types" : [ "country", "political" ]
            },
            {
               "long_name" : "41190",
               "short_name" : "41190",
               "types" : [ "postal_code" ]
            }
         ],
         "formatted_address" : "Fatih Mahallesi Hoca Ahmet Yesevi Cad, Fatih, Bağ Sk. No:29, 41190 Başiskele/Kocaeli, Turkey",
         "geometry" : {
            "location" : {
               "lat" : 40.6950373,
               "lng" : 29.9629409
            },
            "location_type" : "ROOFTOP",
            "viewport" : {
               "northeast" : {
                  "lat" : 40.69638628029149,
                  "lng" : 29.9642898802915
               },
               "southwest" : {
                  "lat" : 40.69368831970849,
                  "lng" : 29.9615919197085
               }
            }
         },
         "place_id" : "ChIJC2xC0cRFyxQR2pFa_wPXOpA",
         "plus_code" : {
            "compound_code" : "MXW7+25 Başiskele/Kocaeli, Turkey",
            "global_code" : "8GGFMXW7+25"
         },
         "types" : [ "establishment", "point_of_interest" ]
      },
      {
         "address_components" : [
            {
               "long_name" : "23",
               "short_name" : "23",
               "types" : [ "street_number" ]
            },
            {
               "long_name" : "Bağ Sokak",
               "short_name" : "Bağ Sk.",
               "types" : [ "route" ]
            },
            {
               "long_name" : "Fatih",
               "short_name" : "Fatih",
               "types" : [ "administrative_area_level_4", "political" ]
            },
            {
               "long_name" : "Başiskele",
               "short_name" : "Başiskele",
               "types" : [ "administrative_area_level_2", "political" ]
            },
            {
               "long_name" : "Kocaeli",
               "short_name" : "Kocaeli",
               "types" : [ "administrative_area_level_1", "political" ]
            },
            {
               "long_name" : "Turkey",
               "short_name" : "TR",
               "types" : [ "country", "political" ]
            },
            {
               "long_name" : "41190",
               "short_name" : "41190",
               "types" : [ "postal_code" ]
            }
         ],
         "formatted_address" : "Fatih, Bağ Sk. No:23, 41190 Başiskele/Kocaeli, Turkey",
         "geometry" : {
            "location" : {
               "lat" : 40.694908,
               "lng" : 29.963113
            },
            "location_type" : "ROOFTOP",
            "viewport" : {
               "northeast" : {
                  "lat" : 40.6962569802915,
                  "lng" : 29.9644619802915
               },
               "southwest" : {
                  "lat" : 40.6935590197085,
                  "lng" : 29.9617640197085
               }
            }
         },
         "place_id" : "ChIJ364Xo7BEyxQRTuSEs2S1v5U",
         "plus_code" : {
            "compound_code" : "MXV7+X6 Başiskele/Kocaeli, Turkey",
            "global_code" : "8GGFMXV7+X6"
         },
         "types" : [ "street_address" ]
      },
      {
         "address_components" : [
            {
               "long_name" : "MXW6+3X",
               "short_name" : "MXW6+3X",
               "types" : [ "plus_code" ]
            },
            {
               "long_name" : "Başiskele",
               "short_name" : "Başiskele",
               "types" : [ "administrative_area_level_2", "political" ]
            },
            {
               "long_name" : "Kocaeli",
               "short_name" : "Kocaeli",
               "types" : [ "administrative_area_level_1", "political" ]
            },
            {
               "long_name" : "Turkey",
               "short_name" : "TR",
               "types" : [ "country", "political" ]
            }
         ],
         "formatted_address" : "MXW6+3X Başiskele/Kocaeli, Turkey",
         "geometry" : {
            "bounds" : {
               "northeast" : {
                  "lat" : 40.69525,
                  "lng" : 29.9625
               },
               "southwest" : {
                  "lat" : 40.695125,
                  "lng" : 29.96237499999999
               }
            },
            "location" : {
               "lat" : 40.69521659999999,
               "lng" : 29.9624634
            },
            "location_type" : "GEOMETRIC_CENTER",
            "viewport" : {
               "northeast" : {
                  "lat" : 40.69653648029151,
                  "lng" : 29.9637864802915
               },
               "southwest" : {
                  "lat" : 40.69383851970851,
                  "lng" : 29.9610885197085
               }
            }
         },
         "place_id" : "GhIJclGI2_xYREAR0phaAGT2PUA",
         "plus_code" : {
            "compound_code" : "MXW6+3X Başiskele/Kocaeli, Turkey",
            "global_code" : "8GGFMXW6+3X"
         },
         "types" : [ "plus_code" ]
      },
      {
         "address_components" : [
            {
               "long_name" : "19",
               "short_name" : "19",
               "types" : [ "street_number" ]
            },
            {
               "long_name" : "Bağ Sokak",
               "short_name" : "Bağ Sk.",
               "types" : [ "route" ]
            },
            {
               "long_name" : "Fatih",
               "short_name" : "Fatih",
               "types" : [ "administrative_area_level_4", "political" ]
            },
            {
               "long_name" : "Başiskele",
               "short_name" : "Başiskele",
               "types" : [ "administrative_area_level_2", "political" ]
            },
            {
               "long_name" : "Kocaeli",
               "short_name" : "Kocaeli",
               "types" : [ "administrative_area_level_1", "political" ]
            },
            {
               "long_name" : "Turkey",
               "short_name" : "TR",
               "types" : [ "country", "political" ]
            },
            {
               "long_name" : "41190",
               "short_name" : "41190",
               "types" : [ "postal_code" ]
            }
         ],
         "formatted_address" : "Fatih, Bağ Sk. No:19, 41190 Başiskele/Kocaeli, Turkey",
         "geometry" : {
            "location" : {
               "lat" : 40.69447359999999,
               "lng" : 29.9630282
            },
            "location_type" : "RANGE_INTERPOLATED",
            "viewport" : {
               "northeast" : {
                  "lat" : 40.6958225802915,
                  "lng" : 29.9643771802915
               },
               "southwest" : {
                  "lat" : 40.6931246197085,
                  "lng" : 29.9616792197085
               }
            }
         },
         "place_id" : "EjdGYXRpaCwgQmHEnyBTay4gTm86MTksIDQxMTkwIEJhxZ9pc2tlbGUvS29jYWVsaSwgVHVya2V5IhoSGAoUChIJuRE3mrBEyxQR4pF0GgWdKYIQEw",
         "types" : [ "street_address" ]
      },
      {
         "address_components" : [
            {
               "long_name" : "80",
               "short_name" : "80",
               "types" : [ "street_number" ]
            },
            {
               "long_name" : "Hoca Ahmet Yesevi Caddesi",
               "short_name" : "Hoca Ahmet Yesevi Cd.",
               "types" : [ "route" ]
            },
            {
               "long_name" : "Fatih",
               "short_name" : "Fatih",
               "types" : [ "administrative_area_level_4", "political" ]
            },
            {
               "long_name" : "Başiskele",
               "short_name" : "Başiskele",
               "types" : [ "administrative_area_level_2", "political" ]
            },
            {
               "long_name" : "Kocaeli",
               "short_name" : "Kocaeli",
               "types" : [ "administrative_area_level_1", "political" ]
            },
            {
               "long_name" : "Turkey",
               "short_name" : "TR",
               "types" : [ "country", "political" ]
            },
            {
               "long_name" : "41190",
               "short_name" : "41190",
               "types" : [ "postal_code" ]
            }
         ],
         "formatted_address" : "Fatih, Hoca Ahmet Yesevi Cd. No:80, 41190 Başiskele/Kocaeli, Turkey",
         "geometry" : {
            "bounds" : {
               "northeast" : {
                  "lat" : 40.6948813,
                  "lng" : 29.961677
               },
               "southwest" : {
                  "lat" : 40.6944042,
                  "lng" : 29.96072959999999
               }
            },
            "location" : {
               "lat" : 40.6947398,
               "lng" : 29.9611932
            },
            "location_type" : "GEOMETRIC_CENTER",
            "viewport" : {
               "northeast" : {
                  "lat" : 40.6959917302915,
                  "lng" : 29.9625522802915
               },
               "southwest" : {
                  "lat" : 40.6932937697085,
                  "lng" : 29.9598543197085
               }
            }
         },
         "place_id" : "ChIJ7WE8aLpEyxQRkNhq8Ipqolc",
         "types" : [ "route" ]
      },
      {
         "address_components" : [
            {
               "long_name" : "Fatih",
               "short_name" : "Fatih",
               "types" : [ "administrative_area_level_4", "political" ]
            },
            {
               "long_name" : "Başiskele",
               "short_name" : "Başiskele",
               "types" : [ "administrative_area_level_2", "political" ]
            },
            {
               "long_name" : "Kocaeli",
               "short_name" : "Kocaeli",
               "types" : [ "administrative_area_level_1", "political" ]
            },
            {
               "long_name" : "Turkey",
               "short_name" : "TR",
               "types" : [ "country", "political" ]
            }
         ],
         "formatted_address" : "Fatih, Başiskele/Kocaeli, Turkey",
         "geometry" : {
            "bounds" : {
               "northeast" : {
                  "lat" : 40.715106,
                  "lng" : 29.983199
               },
               "southwest" : {
                  "lat" : 40.6849,
                  "lng" : 29.949649
               }
            },
            "location" : {
               "lat" : 40.6944072,
               "lng" : 29.9682719
            },
            "location_type" : "APPROXIMATE",
            "viewport" : {
               "northeast" : {
                  "lat" : 40.715106,
                  "lng" : 29.983199
               },
               "southwest" : {
                  "lat" : 40.6849,
                  "lng" : 29.949649
               }
            }
         },
         "place_id" : "ChIJL6cIcLZEyxQRGlZG8g7EQms",
         "types" : [ "administrative_area_level_4", "political" ]
      },
      {
         "address_components" : [
            {
               "long_name" : "41190",
               "short_name" : "41190",
               "types" : [ "postal_code" ]
            },
            {
               "long_name" : "Doğantepe",
               "short_name" : "Doğantepe",
               "types" : [ "administrative_area_level_4", "political" ]
            },
            {
               "long_name" : "Başiskele",
               "short_name" : "Başiskele",
               "types" : [ "administrative_area_level_2", "political" ]
            },
            {
               "long_name" : "Kocaeli",
               "short_name" : "Kocaeli",
               "types" : [ "administrative_area_level_1", "political" ]
            },
            {
               "long_name" : "Turkey",
               "short_name" : "TR",
               "types" : [ "country", "political" ]
            }
         ],
         "formatted_address" : "Doğantepe, 41190 Başiskele/Kocaeli, Turkey",
         "geometry" : {
            "bounds" : {
               "northeast" : {
                  "lat" : 40.715106,
                  "lng" : 29.9849581
               },
               "southwest" : {
                  "lat" : 40.6849,
                  "lng" : 29.949649
               }
            },
            "location" : {
               "lat" : 40.6944072,
               "lng" : 29.9682719
            },
            "location_type" : "APPROXIMATE",
            "viewport" : {
               "northeast" : {
                  "lat" : 40.715106,
                  "lng" : 29.9849581
               },
               "southwest" : {
                  "lat" : 40.6849,
                  "lng" : 29.949649
               }
            }
         },
         "place_id" : "ChIJASuRU15EyxQRTF8UZRqPVk8",
         "types" : [ "postal_code" ]
      },
      {
         "address_components" : [
            {
               "long_name" : "Başiskele",
               "short_name" : "Başiskele",
               "types" : [ "administrative_area_level_2", "political" ]
            },
            {
               "long_name" : "Kocaeli",
               "short_name" : "Kocaeli",
               "types" : [ "administrative_area_level_1", "political" ]
            },
            {
               "long_name" : "Turkey",
               "short_name" : "TR",
               "types" : [ "country", "political" ]
            }
         ],
         "formatted_address" : "Başiskele/Kocaeli, Turkey",
         "geometry" : {
            "bounds" : {
               "northeast" : {
                  "lat" : 40.76206699999999,
                  "lng" : 30.0578921
               },
               "southwest" : {
                  "lat" : 40.52744,
                  "lng" : 29.847083
               }
            },
            "location" : {
               "lat" : 40.6298368,
               "lng" : 29.950926
            },
            "location_type" : "APPROXIMATE",
            "viewport" : {
               "northeast" : {
                  "lat" : 40.76206699999999,
                  "lng" : 30.0578921
               },
               "southwest" : {
                  "lat" : 40.52744,
                  "lng" : 29.847083
               }
            }
         },
         "place_id" : "ChIJhREav-NCyxQRkAWgNA8cqiY",
         "types" : [ "administrative_area_level_2", "political" ]
      },
      {
         "address_components" : [
            {
               "long_name" : "Kocaeli",
               "short_name" : "Kocaeli",
               "types" : [ "administrative_area_level_1", "political" ]
            },
            {
               "long_name" : "Turkey",
               "short_name" : "TR",
               "types" : [ "country", "political" ]
            }
         ],
         "formatted_address" : "Kocaeli, Turkey",
         "geometry" : {
            "bounds" : {
               "northeast" : {
                  "lat" : 41.20976,
                  "lng" : 30.367743
               },
               "southwest" : {
                  "lat" : 40.524151,
                  "lng" : 29.3331261
               }
            },
            "location" : {
               "lat" : 40.8532704,
               "lng" : 29.8815203
            },
            "location_type" : "APPROXIMATE",
            "viewport" : {
               "northeast" : {
                  "lat" : 41.20976,
                  "lng" : 30.367743
               },
               "southwest" : {
                  "lat" : 40.524151,
                  "lng" : 29.3331261
               }
            }
         },
         "place_id" : "ChIJQ8zKb5QgyxQRWdhW642zLKg",
         "types" : [ "administrative_area_level_1", "political" ]
      },
      {
         "address_components" : [
            {
               "long_name" : "Turkey",
               "short_name" : "TR",
               "types" : [ "country", "political" ]
            }
         ],
         "formatted_address" : "Turkey",
         "geometry" : {
            "bounds" : {
               "northeast" : {
                  "lat" : 42.3666999,
                  "lng" : 44.8178449
               },
               "southwest" : {
                  "lat" : 35.808592,
                  "lng" : 25.5377
               }
            },
            "location" : {
               "lat" : 38.963745,
               "lng" : 35.243322
            },
            "location_type" : "APPROXIMATE",
            "viewport" : {
               "northeast" : {
                  "lat" : 42.3666999,
                  "lng" : 44.8178449
               },
               "southwest" : {
                  "lat" : 35.808592,
                  "lng" : 25.5377
               }
            }
         },
         "place_id" : "ChIJcSZPllwVsBQRKl9iKtTb2UA",
         "types" : [ "country", "political" ]
      }
   ],
   "status" : "OK"
}
