{
   "plus_code" : {
      "compound_code" : "RCGH+GQ6 Adapazarı/Sakarya, Turkey",
      "global_code" : "8GGGRCGH+GQ6"
   },
   "results" : [
      {
         "address_components" : [
            {
               "long_name" : "RCGH+GQ",
               "short_name" : "RCGH+GQ",
               "types" : [ "plus_code" ]
            },
            {
               "long_name" : "Adapazarı",
               "short_name" : "Adapazarı",
               "types" : [ "administrative_area_level_2", "political" ]
            },
            {
               "long_name" : "Sakarya",
               "short_name" : "Sakarya",
               "types" : [ "administrative_area_level_1", "political" ]
            },
            {
               "long_name" : "Turkey",
               "short_name" : "TR",
               "types" : [ "country", "political" ]
            }
         ],
         "formatted_address" : "RCGH+GQ Adapazarı/Sakarya, Turkey",
         "geometry" : {
            "bounds" : {
               "northeast" : {
                  "lat" : 40.826375,
                  "lng" : 30.4295
               },
               "southwest" : {
                  "lat" : 40.82624999999999,
                  "lng" : 30.429375
               }
            },
            "location" : {
               "lat" : 40.8262804,
               "lng" : 30.4293823
            },
            "location_type" : "GEOMETRIC_CENTER",
            "viewport" : {
               "northeast" : {
                  "lat" : 40.82766148029149,
                  "lng" : 30.4307864802915
               },
               "southwest" : {
                  "lat" : 40.82496351970849,
                  "lng" : 30.4280885197085
               }
            }
         },
         "place_id" : "GhIJtKlfjsNpREARNPuX_-ttPkA",
         "plus_code" : {
            "compound_code" : "RCGH+GQ Adapazarı/Sakarya, Turkey",
            "global_code" : "8GGGRCGH+GQ"
         },
         "types" : [ "plus_code" ]
      },
      {
         "address_components" : [
            {
               "long_name" : "Unnamed Road",
               "short_name" : "Unnamed Road",
               "types" : [ "route" ]
            },
            {
               "long_name" : "Süleymanbey",
               "short_name" : "Süleymanbey",
               "types" : [ "administrative_area_level_4", "political" ]
            },
            {
               "long_name" : "Adapazarı",
               "short_name" : "Adapazarı",
               "types" : [ "administrative_area_level_2", "political" ]
            },
            {
               "long_name" : "Sakarya",
               "short_name" : "Sakarya",
               "types" : [ "administrative_area_level_1", "political" ]
            },
            {
               "long_name" : "Turkey",
               "short_name" : "TR",
               "types" : [ "country", "political" ]
            },
            {
               "long_name" : "54100",
               "short_name" : "54100",
               "types" : [ "postal_code" ]
            }
         ],
         "formatted_address" : "Süleymanbey, Unnamed Road, 54100 Adapazarı/Sakarya, Turkey",
         "geometry" : {
            "bounds" : {
               "northeast" : {
                  "lat" : 40.8292858,
                  "lng" : 30.4313861
               },
               "southwest" : {
                  "lat" : 40.82496930000001,
                  "lng" : 30.4266359
               }
            },
            "location" : {
               "lat" : 40.8284641,
               "lng" : 30.4276846
            },
            "location_type" : "GEOMETRIC_CENTER",
            "viewport" : {
               "northeast" : {
                  "lat" : 40.8292858,
                  "lng" : 30.4313861
               },
               "southwest" : {
                  "lat" : 40.82496930000001,
                  "lng" : 30.4266359
               }
            }
         },
         "place_id" : "ChIJuZC1cRj3nUAR-vi1j-GVlNs",
         "types" : [ "route" ]
      },
      {
         "address_components" : [
            {
               "long_name" : "54100",
               "short_name" : "54100",
               "types" : [ "postal_code" ]
            },
            {
               "long_name" : "Adapazarı",
               "short_name" : "Adapazarı",
               "types" : [ "administrative_area_level_2", "political" ]
            },
            {
               "long_name" : "Sakarya",
               "short_name" : "Sakarya",
               "types" : [ "administrative_area_level_1", "political" ]
            },
            {
               "long_name" : "Turkey",
               "short_name" : "TR",
               "types" : [ "country", "political" ]
            }
         ],
         "formatted_address" : "54100 Adapazarı/Sakarya, Turkey",
         "geometry" : {
            "bounds" : {
               "northeast" : {
                  "lat" : 40.82699,
                  "lng" : 30.4376379
               },
               "southwest" : {
                  "lat" : 40.798637,
                  "lng" : 30.4162709
               }
            },
            "location" : {
               "lat" : 40.8095554,
               "lng" : 30.4271651
            },
            "location_type" : "APPROXIMATE",
            "viewport" : {
               "northeast" : {
                  "lat" : 40.82699,
                  "lng" : 30.4376379
               },
               "southwest" : {
                  "lat" : 40.798637,
                  "lng" : 30.4162709
               }
            }
         },
         "place_id" : "ChIJ_ecuCgL3nUARX07JuwO3X4o",
         "types" : [ "postal_code" ]
      },
      {
         "address_components" : [
            {
               "long_name" : "Köprübaşı",
               "short_name" : "Köprübaşı",
               "types" : [ "administrative_area_level_4", "political" ]
            },
            {
               "long_name" : "Adapazarı",
               "short_name" : "Adapazarı",
               "types" : [ "administrative_area_level_2", "political" ]
            },
            {
               "long_name" : "Sakarya",
               "short_name" : "Sakarya",
               "types" : [ "administrative_area_level_1", "political" ]
            },
            {
               "long_name" : "Turkey",
               "short_name" : "TR",
               "types" : [ "country", "political" ]
            }
         ],
         "formatted_address" : "Köprübaşı, Adapazarı/Sakarya, Turkey",
         "geometry" : {
            "bounds" : {
               "northeast" : {
                  "lat" : 40.8672169,
                  "lng" : 30.459152
               },
               "southwest" : {
                  "lat" : 40.795588,
                  "lng" : 30.424191
               }
            },
            "location" : {
               "lat" : 40.8446138,
               "lng" : 30.441637
            },
            "location_type" : "APPROXIMATE",
            "viewport" : {
               "northeast" : {
                  "lat" : 40.8672169,
                  "lng" : 30.459152
               },
               "southwest" : {
                  "lat" : 40.795588,
                  "lng" : 30.424191
               }
            }
         },
         "place_id" : "ChIJExziW1n2nUARRPKfQsmObWQ",
         "types" : [ "administrative_area_level_4", "political" ]
      },
      {
         "address_components" : [
            {
               "long_name" : "Adapazarı",
               "short_name" : "Adapazarı",
               "types" : [ "administrative_area_level_2", "political" ]
            },
            {
               "long_name" : "Sakarya",
               "short_name" : "Sakarya",
               "types" : [ "administrative_area_level_1", "political" ]
            },
            {
               "long_name" : "Turkey",
               "short_name" : "TR",
               "types" : [ "country", "political" ]
            }
         ],
         "formatted_address" : "Adapazarı/Sakarya, Turkey",
         "geometry" : {
            "bounds" : {
               "northeast" : {
                  "lat" : 40.953458,
                  "lng" : 30.60662
               },
               "southwest" : {
                  "lat" : 40.7348141,
                  "lng" : 30.2332369
               }
            },
            "location" : {
               "lat" : 40.8291144,
               "lng" : 30.4154737
            },
            "location_type" : "APPROXIMATE",
            "viewport" : {
               "northeast" : {
                  "lat" : 40.953458,
                  "lng" : 30.60662
               },
               "southwest" : {
                  "lat" : 40.7348141,
                  "lng" : 30.2332369
               }
            }
         },
         "place_id" : "ChIJS7wrBzv2nUARp_q_SPtBLuQ",
         "types" : [ "administrative_area_level_2", "political" ]
      },
      {
         "address_components" : [
            {
               "long_name" : "Sakarya",
               "short_name" : "Sakarya",
               "types" : [ "administrative_area_level_1", "political" ]
            },
            {
               "long_name" : "Turkey",
               "short_name" : "TR",
               "types" : [ "country", "political" ]
            }
         ],
         "formatted_address" : "Sakarya, Turkey",
         "geometry" : {
            "bounds" : {
               "northeast" : {
                  "lat" : 41.17934,
                  "lng" : 31.013034
               },
               "southwest" : {
                  "lat" : 40.2880759,
                  "lng" : 29.928125
               }
            },
            "location" : {
               "lat" : 40.6939973,
               "lng" : 30.4357631
            },
            "location_type" : "APPROXIMATE",
            "viewport" : {
               "northeast" : {
                  "lat" : 41.17934,
                  "lng" : 31.013034
               },
               "southwest" : {
                  "lat" : 40.2880759,
                  "lng" : 29.928125
               }
            }
         },
         "place_id" : "ChIJGxhSlha1zBQRAZKNx6UHqOs",
         "types" : [ "administrative_area_level_1", "political" ]
      },
      {
         "address_components" : [
            {
               "long_name" : "Turkey",
               "short_name" : "TR",
               "types" : [ "country", "political" ]
            }
         ],
         "formatted_address" : "Turkey",
         "geometry" : {
            "bounds" : {
               "northeast" : {
                  "lat" : 42.3666999,
                  "lng" : 44.8178449
               },
               "southwest" : {
                  "lat" : 35.808592,
                  "lng" : 25.5377
               }
            },
            "location" : {
               "lat" : 38.963745,
               "lng" : 35.243322
            },
            "location_type" : "APPROXIMATE",
            "viewport" : {
               "northeast" : {
                  "lat" : 42.3666999,
                  "lng" : 44.8178449
               },
               "southwest" : {
                  "lat" : 35.808592,
                  "lng" : 25.5377
               }
            }
         },
         "place_id" : "ChIJcSZPllwVsBQRKl9iKtTb2UA",
         "types" : [ "country", "political" ]
      }
   ],
   "status" : "OK"
}
