{
   "plus_code" : {
      "compound_code" : "M2W8+3XJ Kartepe/Kocaeli, Turkey",
      "global_code" : "8GGGM2W8+3XJ"
   },
   "results" : [
      {
         "address_components" : [
            {
               "long_name" : "26",
               "short_name" : "26",
               "types" : [ "street_number" ]
            },
            {
               "long_name" : "Bağlar Sokak",
               "short_name" : "Bağlar Sk.",
               "types" : [ "route" ]
            },
            {
               "long_name" : "Arslanbey",
               "short_name" : "Arslanbey",
               "types" : [ "administrative_area_level_4", "political" ]
            },
            {
               "long_name" : "Kartepe",
               "short_name" : "Kartepe",
               "types" : [ "administrative_area_level_2", "political" ]
            },
            {
               "long_name" : "Kocaeli",
               "short_name" : "Kocaeli",
               "types" : [ "administrative_area_level_1", "political" ]
            },
            {
               "long_name" : "Turkey",
               "short_name" : "TR",
               "types" : [ "country", "political" ]
            },
            {
               "long_name" : "41285",
               "short_name" : "41285",
               "types" : [ "postal_code" ]
            }
         ],
         "formatted_address" : "Arslanbey, Bağlar Sk. No:26, 41285 Kartepe/Kocaeli, Turkey",
         "geometry" : {
            "location" : {
               "lat" : 40.694889,
               "lng" : 30.019029
            },
            "location_type" : "ROOFTOP",
            "viewport" : {
               "northeast" : {
                  "lat" : 40.69623798029149,
                  "lng" : 30.0203779802915
               },
               "southwest" : {
                  "lat" : 40.69354001970849,
                  "lng" : 30.0176800197085
               }
            }
         },
         "place_id" : "ChIJ4cTh6gdbyxQR3IvfcDcB9rE",
         "plus_code" : {
            "compound_code" : "M2V9+XJ Kartepe/Kocaeli, Turkey",
            "global_code" : "8GGGM2V9+XJ"
         },
         "types" : [ "street_address" ]
      },
      {
         "address_components" : [
            {
               "long_name" : "M2W8+3X",
               "short_name" : "M2W8+3X",
               "types" : [ "plus_code" ]
            },
            {
               "long_name" : "Kartepe",
               "short_name" : "Kartepe",
               "types" : [ "administrative_area_level_2", "political" ]
            },
            {
               "long_name" : "Kocaeli",
               "short_name" : "Kocaeli",
               "types" : [ "administrative_area_level_1", "political" ]
            },
            {
               "long_name" : "Turkey",
               "short_name" : "TR",
               "types" : [ "country", "political" ]
            }
         ],
         "formatted_address" : "M2W8+3X Kartepe/Kocaeli, Turkey",
         "geometry" : {
            "bounds" : {
               "northeast" : {
                  "lat" : 40.69525,
                  "lng" : 30.0175
               },
               "southwest" : {
                  "lat" : 40.695125,
                  "lng" : 30.017375
               }
            },
            "location" : {
               "lat" : 40.69521659999999,
               "lng" : 30.01739499999999
            },
            "location_type" : "GEOMETRIC_CENTER",
            "viewport" : {
               "northeast" : {
                  "lat" : 40.69653648029151,
                  "lng" : 30.0187864802915
               },
               "southwest" : {
                  "lat" : 40.69383851970851,
                  "lng" : 30.0160885197085
               }
            }
         },
         "place_id" : "GhIJclGI2_xYREARKB2s_3MEPkA",
         "plus_code" : {
            "compound_code" : "M2W8+3X Kartepe/Kocaeli, Turkey",
            "global_code" : "8GGGM2W8+3X"
         },
         "types" : [ "plus_code" ]
      },
      {
         "address_components" : [
            {
               "long_name" : "24",
               "short_name" : "24",
               "types" : [ "street_number" ]
            },
            {
               "long_name" : "Bağlar Sokak",
               "short_name" : "Bağlar Sk.",
               "types" : [ "route" ]
            },
            {
               "long_name" : "Kartepe",
               "short_name" : "Kartepe",
               "types" : [ "administrative_area_level_2", "political" ]
            },
            {
               "long_name" : "Kocaeli",
               "short_name" : "Kocaeli",
               "types" : [ "administrative_area_level_1", "political" ]
            },
            {
               "long_name" : "Turkey",
               "short_name" : "TR",
               "types" : [ "country", "political" ]
            }
         ],
         "formatted_address" : "Bağlar Sk. No:24, Kartepe/Kocaeli, Turkey",
         "geometry" : {
            "location" : {
               "lat" : 40.6950027,
               "lng" : 30.0191026
            },
            "location_type" : "RANGE_INTERPOLATED",
            "viewport" : {
               "northeast" : {
                  "lat" : 40.6963516802915,
                  "lng" : 30.0204515802915
               },
               "southwest" : {
                  "lat" : 40.6936537197085,
                  "lng" : 30.0177536197085
               }
            }
         },
         "place_id" : "EipCYcSfbGFyIFNrLiBObzoyNCwgS2FydGVwZS9Lb2NhZWxpLCBUdXJrZXkiGhIYChQKEgk5l7w_CFvLFBG4f7ev2CK6XxAY",
         "types" : [ "street_address" ]
      },
      {
         "address_components" : [
            {
               "long_name" : "46-17",
               "short_name" : "46-17",
               "types" : [ "street_number" ]
            },
            {
               "long_name" : "Bağlar Sokak",
               "short_name" : "Bağlar Sk.",
               "types" : [ "route" ]
            },
            {
               "long_name" : "Kartepe",
               "short_name" : "Kartepe",
               "types" : [ "administrative_area_level_2", "political" ]
            },
            {
               "long_name" : "Kocaeli",
               "short_name" : "Kocaeli",
               "types" : [ "administrative_area_level_1", "political" ]
            },
            {
               "long_name" : "Turkey",
               "short_name" : "TR",
               "types" : [ "country", "political" ]
            }
         ],
         "formatted_address" : "Bağlar Sk. 46-17, Kartepe/Kocaeli, Turkey",
         "geometry" : {
            "bounds" : {
               "northeast" : {
                  "lat" : 40.6956398,
                  "lng" : 30.0193971
               },
               "southwest" : {
                  "lat" : 40.6909198,
                  "lng" : 30.0185254
               }
            },
            "location" : {
               "lat" : 40.6933215,
               "lng" : 30.0185697
            },
            "location_type" : "GEOMETRIC_CENTER",
            "viewport" : {
               "northeast" : {
                  "lat" : 40.6956398,
                  "lng" : 30.0203102302915
               },
               "southwest" : {
                  "lat" : 40.6909198,
                  "lng" : 30.0176122697085
               }
            }
         },
         "place_id" : "ChIJOZe8PwhbyxQRuH-3r9giul8",
         "types" : [ "route" ]
      },
      {
         "address_components" : [
            {
               "long_name" : "41285",
               "short_name" : "41285",
               "types" : [ "postal_code" ]
            },
            {
               "long_name" : "Arslanbey",
               "short_name" : "Arslanbey",
               "types" : [ "administrative_area_level_4", "political" ]
            },
            {
               "long_name" : "Kartepe",
               "short_name" : "Kartepe",
               "types" : [ "administrative_area_level_2", "political" ]
            },
            {
               "long_name" : "Kocaeli",
               "short_name" : "Kocaeli",
               "types" : [ "administrative_area_level_1", "political" ]
            },
            {
               "long_name" : "Turkey",
               "short_name" : "TR",
               "types" : [ "country", "political" ]
            }
         ],
         "formatted_address" : "Arslanbey, 41285 Kartepe/Kocaeli, Turkey",
         "geometry" : {
            "bounds" : {
               "northeast" : {
                  "lat" : 40.713058,
                  "lng" : 30.040374
               },
               "southwest" : {
                  "lat" : 40.657506,
                  "lng" : 30.013348
               }
            },
            "location" : {
               "lat" : 40.6779114,
               "lng" : 30.0260757
            },
            "location_type" : "APPROXIMATE",
            "viewport" : {
               "northeast" : {
                  "lat" : 40.713058,
                  "lng" : 30.040374
               },
               "southwest" : {
                  "lat" : 40.657506,
                  "lng" : 30.013348
               }
            }
         },
         "place_id" : "ChIJlekqYFFayxQR7Rm3A-QZcms",
         "types" : [ "postal_code" ]
      },
      {
         "address_components" : [
            {
               "long_name" : "Arslanbey",
               "short_name" : "Arslanbey",
               "types" : [ "administrative_area_level_4", "political" ]
            },
            {
               "long_name" : "Kartepe",
               "short_name" : "Kartepe",
               "types" : [ "administrative_area_level_2", "political" ]
            },
            {
               "long_name" : "Kocaeli",
               "short_name" : "Kocaeli",
               "types" : [ "administrative_area_level_1", "political" ]
            },
            {
               "long_name" : "Turkey",
               "short_name" : "TR",
               "types" : [ "country", "political" ]
            }
         ],
         "formatted_address" : "Arslanbey, Kartepe/Kocaeli, Turkey",
         "geometry" : {
            "bounds" : {
               "northeast" : {
                  "lat" : 40.7248871,
                  "lng" : 30.056285
               },
               "southwest" : {
                  "lat" : 40.657506,
                  "lng" : 30.013348
               }
            },
            "location" : {
               "lat" : 40.6779114,
               "lng" : 30.0260757
            },
            "location_type" : "APPROXIMATE",
            "viewport" : {
               "northeast" : {
                  "lat" : 40.7248871,
                  "lng" : 30.056285
               },
               "southwest" : {
                  "lat" : 40.657506,
                  "lng" : 30.013348
               }
            }
         },
         "place_id" : "ChIJ4ciL-LBbyxQRln0X1Jq8mAo",
         "types" : [ "administrative_area_level_4", "political" ]
      },
      {
         "address_components" : [
            {
               "long_name" : "Kartepe",
               "short_name" : "Kartepe",
               "types" : [ "administrative_area_level_2", "political" ]
            },
            {
               "long_name" : "Kocaeli",
               "short_name" : "Kocaeli",
               "types" : [ "administrative_area_level_1", "political" ]
            },
            {
               "long_name" : "Turkey",
               "short_name" : "TR",
               "types" : [ "country", "political" ]
            }
         ],
         "formatted_address" : "Kartepe/Kocaeli, Turkey",
         "geometry" : {
            "bounds" : {
               "northeast" : {
                  "lat" : 40.786927,
                  "lng" : 30.26217
               },
               "southwest" : {
                  "lat" : 40.588952,
                  "lng" : 29.9860989
               }
            },
            "location" : {
               "lat" : 40.70139169999999,
               "lng" : 30.0896313
            },
            "location_type" : "APPROXIMATE",
            "viewport" : {
               "northeast" : {
                  "lat" : 40.786927,
                  "lng" : 30.26217
               },
               "southwest" : {
                  "lat" : 40.588952,
                  "lng" : 29.9860989
               }
            }
         },
         "place_id" : "ChIJY9NMDlFYyxQRxGvcZ6xs_aY",
         "types" : [ "administrative_area_level_2", "political" ]
      },
      {
         "address_components" : [
            {
               "long_name" : "Kocaeli",
               "short_name" : "Kocaeli",
               "types" : [ "administrative_area_level_1", "political" ]
            },
            {
               "long_name" : "Turkey",
               "short_name" : "TR",
               "types" : [ "country", "political" ]
            }
         ],
         "formatted_address" : "Kocaeli, Turkey",
         "geometry" : {
            "bounds" : {
               "northeast" : {
                  "lat" : 41.20976,
                  "lng" : 30.367743
               },
               "southwest" : {
                  "lat" : 40.524151,
                  "lng" : 29.3331261
               }
            },
            "location" : {
               "lat" : 40.8532704,
               "lng" : 29.8815203
            },
            "location_type" : "APPROXIMATE",
            "viewport" : {
               "northeast" : {
                  "lat" : 41.20976,
                  "lng" : 30.367743
               },
               "southwest" : {
                  "lat" : 40.524151,
                  "lng" : 29.3331261
               }
            }
         },
         "place_id" : "ChIJQ8zKb5QgyxQRWdhW642zLKg",
         "types" : [ "administrative_area_level_1", "political" ]
      },
      {
         "address_components" : [
            {
               "long_name" : "Turkey",
               "short_name" : "TR",
               "types" : [ "country", "political" ]
            }
         ],
         "formatted_address" : "Turkey",
         "geometry" : {
            "bounds" : {
               "northeast" : {
                  "lat" : 42.3666999,
                  "lng" : 44.8178449
               },
               "southwest" : {
                  "lat" : 35.808592,
                  "lng" : 25.5377
               }
            },
            "location" : {
               "lat" : 38.963745,
               "lng" : 35.243322
            },
            "location_type" : "APPROXIMATE",
            "viewport" : {
               "northeast" : {
                  "lat" : 42.3666999,
                  "lng" : 44.8178449
               },
               "southwest" : {
                  "lat" : 35.808592,
                  "lng" : 25.5377
               }
            }
         },
         "place_id" : "ChIJcSZPllwVsBQRKl9iKtTb2UA",
         "types" : [ "country", "political" ]
      }
   ],
   "status" : "OK"
}
