{
   "plus_code" : {
      "compound_code" : "C26X+H29 Kızılöz/Osmaneli/Bilecik, Turkey",
      "global_code" : "8GGGC26X+H29"
   },
   "results" : [
      {
         "address_components" : [
            {
               "long_name" : "C26X+H2",
               "short_name" : "C26X+H2",
               "types" : [ "plus_code" ]
            },
            {
               "long_name" : "Kızılöz",
               "short_name" : "Kızılöz",
               "types" : [ "administrative_area_level_3", "political" ]
            },
            {
               "long_name" : "Osmaneli",
               "short_name" : "Osmaneli",
               "types" : [ "administrative_area_level_2", "political" ]
            },
            {
               "long_name" : "Bilecik",
               "short_name" : "Bilecik",
               "types" : [ "administrative_area_level_1", "political" ]
            },
            {
               "long_name" : "Turkey",
               "short_name" : "TR",
               "types" : [ "country", "political" ]
            }
         ],
         "formatted_address" : "C26X+H2 Kızılöz/Osmaneli/Bilecik, Turkey",
         "geometry" : {
            "bounds" : {
               "northeast" : {
                  "lat" : 40.4115,
                  "lng" : 30.047625
               },
               "southwest" : {
                  "lat" : 40.41137500000001,
                  "lng" : 30.0475
               }
            },
            "location" : {
               "lat" : 40.4114048,
               "lng" : 30.0476074
            },
            "location_type" : "GEOMETRIC_CENTER",
            "viewport" : {
               "northeast" : {
                  "lat" : 40.4127864802915,
                  "lng" : 30.0489114802915
               },
               "southwest" : {
                  "lat" : 40.4100885197085,
                  "lng" : 30.0462135197085
               }
            }
         },
         "place_id" : "GhIJbrWY6ag0REARLwyi_y8MPkA",
         "plus_code" : {
            "compound_code" : "C26X+H2 Kızılöz/Osmaneli/Bilecik, Turkey",
            "global_code" : "8GGGC26X+H2"
         },
         "types" : [ "plus_code" ]
      },
      {
         "address_components" : [
            {
               "long_name" : "Adapazarı Bilecik Yolu",
               "short_name" : "D650",
               "types" : [ "route" ]
            },
            {
               "long_name" : "Selçik",
               "short_name" : "Selçik",
               "types" : [ "administrative_area_level_3", "political" ]
            },
            {
               "long_name" : "Osmaneli",
               "short_name" : "Osmaneli",
               "types" : [ "administrative_area_level_2", "political" ]
            },
            {
               "long_name" : "Bilecik",
               "short_name" : "Bilecik",
               "types" : [ "administrative_area_level_1", "political" ]
            },
            {
               "long_name" : "Turkey",
               "short_name" : "TR",
               "types" : [ "country", "political" ]
            },
            {
               "long_name" : "11500",
               "short_name" : "11500",
               "types" : [ "postal_code" ]
            }
         ],
         "formatted_address" : "Adapazarı Bilecik Yolu, 11500 Selçik/Osmaneli/Bilecik, Turkey",
         "geometry" : {
            "bounds" : {
               "northeast" : {
                  "lat" : 40.4168933,
                  "lng" : 30.0374429
               },
               "southwest" : {
                  "lat" : 40.4131493,
                  "lng" : 30.0322862
               }
            },
            "location" : {
               "lat" : 40.4145539,
               "lng" : 30.0354464
            },
            "location_type" : "GEOMETRIC_CENTER",
            "viewport" : {
               "northeast" : {
                  "lat" : 40.4168933,
                  "lng" : 30.0374429
               },
               "southwest" : {
                  "lat" : 40.4131493,
                  "lng" : 30.0322862
               }
            }
         },
         "place_id" : "ChIJtwBgKBF7yxQRKPghZELbgKc",
         "types" : [ "route" ]
      },
      {
         "address_components" : [
            {
               "long_name" : "Kızılöz",
               "short_name" : "Kızılöz",
               "types" : [ "administrative_area_level_3", "political" ]
            },
            {
               "long_name" : "Osmaneli",
               "short_name" : "Osmaneli",
               "types" : [ "administrative_area_level_2", "political" ]
            },
            {
               "long_name" : "Bilecik",
               "short_name" : "Bilecik",
               "types" : [ "administrative_area_level_1", "political" ]
            },
            {
               "long_name" : "Turkey",
               "short_name" : "TR",
               "types" : [ "country", "political" ]
            }
         ],
         "formatted_address" : "Kızılöz/Osmaneli/Bilecik, Turkey",
         "geometry" : {
            "bounds" : {
               "northeast" : {
                  "lat" : 40.421305,
                  "lng" : 30.10673
               },
               "southwest" : {
                  "lat" : 40.368803,
                  "lng" : 30.029408
               }
            },
            "location" : {
               "lat" : 40.3985114,
               "lng" : 30.078078
            },
            "location_type" : "APPROXIMATE",
            "viewport" : {
               "northeast" : {
                  "lat" : 40.421305,
                  "lng" : 30.10673
               },
               "southwest" : {
                  "lat" : 40.368803,
                  "lng" : 30.029408
               }
            }
         },
         "place_id" : "ChIJB2RTkUx5yxQRRL1O5DCf_UQ",
         "types" : [ "administrative_area_level_3", "political" ]
      },
      {
         "address_components" : [
            {
               "long_name" : "11502",
               "short_name" : "11502",
               "types" : [ "postal_code" ]
            },
            {
               "long_name" : "Bilecik",
               "short_name" : "Bilecik",
               "types" : [ "administrative_area_level_1", "political" ]
            },
            {
               "long_name" : "Turkey",
               "short_name" : "TR",
               "types" : [ "country", "political" ]
            }
         ],
         "formatted_address" : "11502 Bilecik, Turkey",
         "geometry" : {
            "bounds" : {
               "northeast" : {
                  "lat" : 40.4427269,
                  "lng" : 30.1144739
               },
               "southwest" : {
                  "lat" : 40.376852,
                  "lng" : 30.0279781
               }
            },
            "location" : {
               "lat" : 40.4048135,
               "lng" : 30.0723009
            },
            "location_type" : "APPROXIMATE",
            "viewport" : {
               "northeast" : {
                  "lat" : 40.4427269,
                  "lng" : 30.1144739
               },
               "southwest" : {
                  "lat" : 40.376852,
                  "lng" : 30.0279781
               }
            }
         },
         "place_id" : "ChIJ-ScC4qF8yxQRsB8B-DSzbIc",
         "types" : [ "postal_code" ]
      },
      {
         "address_components" : [
            {
               "long_name" : "Osmaneli",
               "short_name" : "Osmaneli",
               "types" : [ "administrative_area_level_2", "political" ]
            },
            {
               "long_name" : "Bilecik",
               "short_name" : "Bilecik",
               "types" : [ "administrative_area_level_1", "political" ]
            },
            {
               "long_name" : "Turkey",
               "short_name" : "TR",
               "types" : [ "country", "political" ]
            }
         ],
         "formatted_address" : "Osmaneli/Bilecik, Turkey",
         "geometry" : {
            "bounds" : {
               "northeast" : {
                  "lat" : 40.5166239,
                  "lng" : 30.218367
               },
               "southwest" : {
                  "lat" : 40.2804959,
                  "lng" : 29.817935
               }
            },
            "location" : {
               "lat" : 40.393685,
               "lng" : 29.9971769
            },
            "location_type" : "APPROXIMATE",
            "viewport" : {
               "northeast" : {
                  "lat" : 40.5166239,
                  "lng" : 30.218367
               },
               "southwest" : {
                  "lat" : 40.2804959,
                  "lng" : 29.817935
               }
            }
         },
         "place_id" : "ChIJ96gm7lJ6yxQRfoWzkKDKmKA",
         "types" : [ "administrative_area_level_2", "political" ]
      },
      {
         "address_components" : [
            {
               "long_name" : "Bilecik",
               "short_name" : "Bilecik",
               "types" : [ "administrative_area_level_1", "political" ]
            },
            {
               "long_name" : "Turkey",
               "short_name" : "TR",
               "types" : [ "country", "political" ]
            }
         ],
         "formatted_address" : "Bilecik, Turkey",
         "geometry" : {
            "bounds" : {
               "northeast" : {
                  "lat" : 40.521195,
                  "lng" : 30.64882489999999
               },
               "southwest" : {
                  "lat" : 39.648859,
                  "lng" : 29.7088961
               }
            },
            "location" : {
               "lat" : 40.0566555,
               "lng" : 30.0665236
            },
            "location_type" : "APPROXIMATE",
            "viewport" : {
               "northeast" : {
                  "lat" : 40.521195,
                  "lng" : 30.64882489999999
               },
               "southwest" : {
                  "lat" : 39.648859,
                  "lng" : 29.7088961
               }
            }
         },
         "place_id" : "ChIJn9GQNw2JyxQR9CrRkKFAt_0",
         "types" : [ "administrative_area_level_1", "political" ]
      },
      {
         "address_components" : [
            {
               "long_name" : "Turkey",
               "short_name" : "TR",
               "types" : [ "country", "political" ]
            }
         ],
         "formatted_address" : "Turkey",
         "geometry" : {
            "bounds" : {
               "northeast" : {
                  "lat" : 42.3666999,
                  "lng" : 44.8178449
               },
               "southwest" : {
                  "lat" : 35.808592,
                  "lng" : 25.5377
               }
            },
            "location" : {
               "lat" : 38.963745,
               "lng" : 35.243322
            },
            "location_type" : "APPROXIMATE",
            "viewport" : {
               "northeast" : {
                  "lat" : 42.3666999,
                  "lng" : 44.8178449
               },
               "southwest" : {
                  "lat" : 35.808592,
                  "lng" : 25.5377
               }
            }
         },
         "place_id" : "ChIJcSZPllwVsBQRKl9iKtTb2UA",
         "types" : [ "country", "political" ]
      }
   ],
   "status" : "OK"
}
