{
   "plus_code" : {
      "compound_code" : "43C5+7G Sarıyer/İstanbul, Turkey",
      "global_code" : "8GHF43C5+7G"
   },
   "results" : [
      {
         "address_components" : [
            {
               "long_name" : "19",
               "short_name" : "19",
               "types" : [ "street_number" ]
            },
            {
               "long_name" : "Kamer Hatun Çıkmazı",
               "short_name" : "Kamer Hatun Çk.",
               "types" : [ "route" ]
            },
            {
               "long_name" : "Yeniköy",
               "short_name" : "Yeniköy",
               "types" : [ "administrative_area_level_4", "political" ]
            },
            {
               "long_name" : "Sarıyer",
               "short_name" : "Sarıyer",
               "types" : [ "administrative_area_level_2", "political" ]
            },
            {
               "long_name" : "İstanbul",
               "short_name" : "İstanbul",
               "types" : [ "administrative_area_level_1", "political" ]
            },
            {
               "long_name" : "Turkey",
               "short_name" : "TR",
               "types" : [ "country", "political" ]
            },
            {
               "long_name" : "34464",
               "short_name" : "34464",
               "types" : [ "postal_code" ]
            }
         ],
         "formatted_address" : "Yeniköy, Kamer Hatun Çk. No:19, 34464 Sarıyer/İstanbul, Turkey",
         "geometry" : {
            "location" : {
               "lat" : 41.1206355,
               "lng" : 29.0581975
            },
            "location_type" : "ROOFTOP",
            "viewport" : {
               "northeast" : {
                  "lat" : 41.1219844802915,
                  "lng" : 29.05954648029149
               },
               "southwest" : {
                  "lat" : 41.1192865197085,
                  "lng" : 29.0568485197085
               }
            }
         },
         "place_id" : "ChIJiVGCAojKyhQRpNK-dibt7RE",
         "plus_code" : {
            "compound_code" : "43C5+77 Sarıyer/İstanbul, Turkey",
            "global_code" : "8GHF43C5+77"
         },
         "types" : [ "street_address" ]
      },
      {
         "address_components" : [
            {
               "long_name" : "9",
               "short_name" : "9",
               "types" : [ "street_number" ]
            },
            {
               "long_name" : "Çağatay Çıkmazı",
               "short_name" : "Çağatay Çk.",
               "types" : [ "route" ]
            },
            {
               "long_name" : "Yeniköy",
               "short_name" : "Yeniköy",
               "types" : [ "administrative_area_level_4", "political" ]
            },
            {
               "long_name" : "Sarıyer",
               "short_name" : "Sarıyer",
               "types" : [ "administrative_area_level_2", "political" ]
            },
            {
               "long_name" : "İstanbul",
               "short_name" : "İstanbul",
               "types" : [ "administrative_area_level_1", "political" ]
            },
            {
               "long_name" : "Turkey",
               "short_name" : "TR",
               "types" : [ "country", "political" ]
            },
            {
               "long_name" : "34464",
               "short_name" : "34464",
               "types" : [ "postal_code" ]
            }
         ],
         "formatted_address" : "Yeniköy, Çağatay Çk. No:9, 34464 Sarıyer/İstanbul, Turkey",
         "geometry" : {
            "bounds" : {
               "northeast" : {
                  "lat" : 41.120056,
                  "lng" : 29.059569
               },
               "southwest" : {
                  "lat" : 41.1199039,
                  "lng" : 29.0593911
               }
            },
            "location" : {
               "lat" : 41.1199891,
               "lng" : 29.0594934
            },
            "location_type" : "ROOFTOP",
            "viewport" : {
               "northeast" : {
                  "lat" : 41.1213289302915,
                  "lng" : 29.0608290302915
               },
               "southwest" : {
                  "lat" : 41.1186309697085,
                  "lng" : 29.05813106970851
               }
            }
         },
         "place_id" : "ChIJHUkEnGLKyhQR4rL5BqyCxlk",
         "types" : [ "premise" ]
      },
      {
         "address_components" : [
            {
               "long_name" : "16",
               "short_name" : "16",
               "types" : [ "street_number" ]
            },
            {
               "long_name" : "Nazır Çıkmazı",
               "short_name" : "Nazır Çk.",
               "types" : [ "route" ]
            },
            {
               "long_name" : "Yeniköy",
               "short_name" : "Yeniköy",
               "types" : [ "administrative_area_level_4", "political" ]
            },
            {
               "long_name" : "Sarıyer",
               "short_name" : "Sarıyer",
               "types" : [ "administrative_area_level_2", "political" ]
            },
            {
               "long_name" : "İstanbul",
               "short_name" : "İstanbul",
               "types" : [ "administrative_area_level_1", "political" ]
            },
            {
               "long_name" : "Turkey",
               "short_name" : "TR",
               "types" : [ "country", "political" ]
            },
            {
               "long_name" : "34464",
               "short_name" : "34464",
               "types" : [ "postal_code" ]
            }
         ],
         "formatted_address" : "Yeniköy, Nazır Çk. No:16, 34464 Sarıyer/İstanbul, Turkey",
         "geometry" : {
            "location" : {
               "lat" : 41.120148,
               "lng" : 29.05781
            },
            "location_type" : "ROOFTOP",
            "viewport" : {
               "northeast" : {
                  "lat" : 41.1214969802915,
                  "lng" : 29.0591589802915
               },
               "southwest" : {
                  "lat" : 41.1187990197085,
                  "lng" : 29.0564610197085
               }
            }
         },
         "place_id" : "ChIJ56V4rWLKyhQRWdfk_4Imcas",
         "plus_code" : {
            "compound_code" : "43C5+34 Sarıyer/İstanbul, Turkey",
            "global_code" : "8GHF43C5+34"
         },
         "types" : [ "establishment", "mosque", "place_of_worship", "point_of_interest" ]
      },
      {
         "address_components" : [
            {
               "long_name" : "43C5+7G",
               "short_name" : "43C5+7G",
               "types" : [ "plus_code" ]
            },
            {
               "long_name" : "Sarıyer",
               "short_name" : "Sarıyer",
               "types" : [ "administrative_area_level_2", "political" ]
            },
            {
               "long_name" : "İstanbul",
               "short_name" : "İstanbul",
               "types" : [ "administrative_area_level_1", "political" ]
            },
            {
               "long_name" : "Turkey",
               "short_name" : "TR",
               "types" : [ "country", "political" ]
            }
         ],
         "formatted_address" : "43C5+7G Sarıyer/İstanbul, Turkey",
         "geometry" : {
            "bounds" : {
               "northeast" : {
                  "lat" : 41.12075,
                  "lng" : 29.058875
               },
               "southwest" : {
                  "lat" : 41.120625,
                  "lng" : 29.05875
               }
            },
            "location" : {
               "lat" : 41.1207456,
               "lng" : 29.0588379
            },
            "location_type" : "GEOMETRIC_CENTER",
            "viewport" : {
               "northeast" : {
                  "lat" : 41.12203648029149,
                  "lng" : 29.0601614802915
               },
               "southwest" : {
                  "lat" : 41.1193385197085,
                  "lng" : 29.0574635197085
               }
            }
         },
         "place_id" : "GhIJZZGBl3SPREAR7EMoABAPPUA",
         "plus_code" : {
            "compound_code" : "43C5+7G Sarıyer/İstanbul, Turkey",
            "global_code" : "8GHF43C5+7G"
         },
         "types" : [ "plus_code" ]
      },
      {
         "address_components" : [
            {
               "long_name" : "19",
               "short_name" : "19",
               "types" : [ "street_number" ]
            },
            {
               "long_name" : "Kamer Hatun Çıkmazı",
               "short_name" : "Kamer Hatun Çk.",
               "types" : [ "route" ]
            },
            {
               "long_name" : "Yeniköy",
               "short_name" : "Yeniköy",
               "types" : [ "administrative_area_level_4", "political" ]
            },
            {
               "long_name" : "Sarıyer",
               "short_name" : "Sarıyer",
               "types" : [ "administrative_area_level_2", "political" ]
            },
            {
               "long_name" : "İstanbul",
               "short_name" : "İstanbul",
               "types" : [ "administrative_area_level_1", "political" ]
            },
            {
               "long_name" : "Turkey",
               "short_name" : "TR",
               "types" : [ "country", "political" ]
            },
            {
               "long_name" : "34464",
               "short_name" : "34464",
               "types" : [ "postal_code" ]
            }
         ],
         "formatted_address" : "Yeniköy, Kamer Hatun Çk. No:19, 34464 Sarıyer/İstanbul, Turkey",
         "geometry" : {
            "location" : {
               "lat" : 41.1204781,
               "lng" : 29.0581276
            },
            "location_type" : "RANGE_INTERPOLATED",
            "viewport" : {
               "northeast" : {
                  "lat" : 41.1218270802915,
                  "lng" : 29.05947658029149
               },
               "southwest" : {
                  "lat" : 41.1191291197085,
                  "lng" : 29.0567786197085
               }
            }
         },
         "place_id" : "EkJZZW5pa8O2eSwgS2FtZXIgSGF0dW4gw4drLiBObzoxOSwgMzQ0NjQgU2FyxLF5ZXIvxLBzdGFuYnVsLCBUdXJrZXkiGhIYChQKEgkTAEasYsrKFBGh97eZtfarRxAT",
         "types" : [ "street_address" ]
      },
      {
         "address_components" : [
            {
               "long_name" : "6-12",
               "short_name" : "6-12",
               "types" : [ "street_number" ]
            },
            {
               "long_name" : "Kamer Hatun Çıkmazı",
               "short_name" : "Kamer Hatun Çk.",
               "types" : [ "route" ]
            },
            {
               "long_name" : "Yeniköy",
               "short_name" : "Yeniköy",
               "types" : [ "administrative_area_level_4", "political" ]
            },
            {
               "long_name" : "Sarıyer",
               "short_name" : "Sarıyer",
               "types" : [ "administrative_area_level_2", "political" ]
            },
            {
               "long_name" : "İstanbul",
               "short_name" : "İstanbul",
               "types" : [ "administrative_area_level_1", "political" ]
            },
            {
               "long_name" : "Turkey",
               "short_name" : "TR",
               "types" : [ "country", "political" ]
            },
            {
               "long_name" : "34464",
               "short_name" : "34464",
               "types" : [ "postal_code" ]
            }
         ],
         "formatted_address" : "Yeniköy, Kamer Hatun Çk. 6-12, 34464 Sarıyer/İstanbul, Turkey",
         "geometry" : {
            "bounds" : {
               "northeast" : {
                  "lat" : 41.1204781,
                  "lng" : 29.0581276
               },
               "southwest" : {
                  "lat" : 41.1201117,
                  "lng" : 29.0576495
               }
            },
            "location" : {
               "lat" : 41.1203679,
               "lng" : 29.0577589
            },
            "location_type" : "GEOMETRIC_CENTER",
            "viewport" : {
               "northeast" : {
                  "lat" : 41.12164388029149,
                  "lng" : 29.05923753029149
               },
               "southwest" : {
                  "lat" : 41.1189459197085,
                  "lng" : 29.05653956970849
               }
            }
         },
         "place_id" : "ChIJEwBGrGLKyhQRoPe3mbX2q0c",
         "types" : [ "route" ]
      },
      {
         "address_components" : [
            {
               "long_name" : "34464",
               "short_name" : "34464",
               "types" : [ "postal_code" ]
            },
            {
               "long_name" : "Yeniköy",
               "short_name" : "Yeniköy",
               "types" : [ "administrative_area_level_4", "political" ]
            },
            {
               "long_name" : "Sarıyer",
               "short_name" : "Sarıyer",
               "types" : [ "administrative_area_level_2", "political" ]
            },
            {
               "long_name" : "İstanbul",
               "short_name" : "İstanbul",
               "types" : [ "administrative_area_level_1", "political" ]
            },
            {
               "long_name" : "Turkey",
               "short_name" : "TR",
               "types" : [ "country", "political" ]
            }
         ],
         "formatted_address" : "Yeniköy, 34464 Sarıyer/İstanbul, Turkey",
         "geometry" : {
            "bounds" : {
               "northeast" : {
                  "lat" : 41.1305381,
                  "lng" : 29.0718899
               },
               "southwest" : {
                  "lat" : 41.114252,
                  "lng" : 29.0478941
               }
            },
            "location" : {
               "lat" : 41.122266,
               "lng" : 29.06053889999999
            },
            "location_type" : "APPROXIMATE",
            "viewport" : {
               "northeast" : {
                  "lat" : 41.1305381,
                  "lng" : 29.0718899
               },
               "southwest" : {
                  "lat" : 41.114252,
                  "lng" : 29.0478941
               }
            }
         },
         "place_id" : "ChIJSRcoK2DKyhQRxWUvO_8uj10",
         "types" : [ "postal_code" ]
      },
      {
         "address_components" : [
            {
               "long_name" : "Yeniköy",
               "short_name" : "Yeniköy",
               "types" : [ "administrative_area_level_4", "political" ]
            },
            {
               "long_name" : "Sarıyer",
               "short_name" : "Sarıyer",
               "types" : [ "administrative_area_level_2", "political" ]
            },
            {
               "long_name" : "İstanbul",
               "short_name" : "İstanbul",
               "types" : [ "administrative_area_level_1", "political" ]
            },
            {
               "long_name" : "Turkey",
               "short_name" : "TR",
               "types" : [ "country", "political" ]
            },
            {
               "long_name" : "34464",
               "short_name" : "34464",
               "types" : [ "postal_code" ]
            }
         ],
         "formatted_address" : "Yeniköy, 34464 Sarıyer/İstanbul, Turkey",
         "geometry" : {
            "bounds" : {
               "northeast" : {
                  "lat" : 41.1305381,
                  "lng" : 29.0718899
               },
               "southwest" : {
                  "lat" : 41.114252,
                  "lng" : 29.0478941
               }
            },
            "location" : {
               "lat" : 41.122266,
               "lng" : 29.06053889999999
            },
            "location_type" : "APPROXIMATE",
            "viewport" : {
               "northeast" : {
                  "lat" : 41.1305381,
                  "lng" : 29.0718899
               },
               "southwest" : {
                  "lat" : 41.114252,
                  "lng" : 29.0478941
               }
            }
         },
         "place_id" : "ChIJGQEL-IjKyhQRlB-TYo-_fsE",
         "types" : [ "administrative_area_level_4", "political" ]
      },
      {
         "address_components" : [
            {
               "long_name" : "Sarıyer",
               "short_name" : "Sarıyer",
               "types" : [ "administrative_area_level_2", "political" ]
            },
            {
               "long_name" : "İstanbul",
               "short_name" : "İstanbul",
               "types" : [ "administrative_area_level_1", "political" ]
            },
            {
               "long_name" : "Turkey",
               "short_name" : "TR",
               "types" : [ "country", "political" ]
            }
         ],
         "formatted_address" : "Sarıyer/İstanbul, Turkey",
         "geometry" : {
            "bounds" : {
               "northeast" : {
                  "lat" : 41.262502,
                  "lng" : 29.11626
               },
               "southwest" : {
                  "lat" : 41.0811211,
                  "lng" : 28.932335
               }
            },
            "location" : {
               "lat" : 41.1814742,
               "lng" : 29.0385466
            },
            "location_type" : "APPROXIMATE",
            "viewport" : {
               "northeast" : {
                  "lat" : 41.262502,
                  "lng" : 29.11626
               },
               "southwest" : {
                  "lat" : 41.0811211,
                  "lng" : 28.932335
               }
            }
         },
         "place_id" : "ChIJ11KoMiLgn0ARxE4ae9DKhjo",
         "types" : [ "administrative_area_level_2", "political" ]
      },
      {
         "address_components" : [
            {
               "long_name" : "European Side",
               "short_name" : "European Side",
               "types" : [ "neighborhood", "political" ]
            },
            {
               "long_name" : "İstanbul",
               "short_name" : "İstanbul",
               "types" : [ "administrative_area_level_1", "political" ]
            },
            {
               "long_name" : "Turkey",
               "short_name" : "TR",
               "types" : [ "country", "political" ]
            }
         ],
         "formatted_address" : "European Side, İstanbul, Turkey",
         "geometry" : {
            "bounds" : {
               "northeast" : {
                  "lat" : 41.199239,
                  "lng" : 29.077487
               },
               "southwest" : {
                  "lat" : 40.954508,
                  "lng" : 28.595554
               }
            },
            "location" : {
               "lat" : 41.0286909,
               "lng" : 28.92404269999999
            },
            "location_type" : "APPROXIMATE",
            "viewport" : {
               "northeast" : {
                  "lat" : 41.199239,
                  "lng" : 29.077487
               },
               "southwest" : {
                  "lat" : 40.954508,
                  "lng" : 28.595554
               }
            }
         },
         "place_id" : "ChIJhTq6hpGkyhQRC5OjsPQ0MVY",
         "types" : [ "neighborhood", "political" ]
      },
      {
         "address_components" : [
            {
               "long_name" : "İstanbul",
               "short_name" : "İstanbul",
               "types" : [ "locality", "political" ]
            },
            {
               "long_name" : "İstanbul",
               "short_name" : "İstanbul",
               "types" : [ "administrative_area_level_1", "political" ]
            },
            {
               "long_name" : "Turkey",
               "short_name" : "TR",
               "types" : [ "country", "political" ]
            }
         ],
         "formatted_address" : "İstanbul, Turkey",
         "geometry" : {
            "bounds" : {
               "northeast" : {
                  "lat" : 41.199239,
                  "lng" : 29.4288049
               },
               "southwest" : {
                  "lat" : 40.811404,
                  "lng" : 28.595554
               }
            },
            "location" : {
               "lat" : 41.0082376,
               "lng" : 28.9783589
            },
            "location_type" : "APPROXIMATE",
            "viewport" : {
               "northeast" : {
                  "lat" : 41.199239,
                  "lng" : 29.4288049
               },
               "southwest" : {
                  "lat" : 40.811404,
                  "lng" : 28.595554
               }
            }
         },
         "place_id" : "ChIJawhoAASnyhQR0LABvJj-zOE",
         "types" : [ "locality", "political" ]
      },
      {
         "address_components" : [
            {
               "long_name" : "İstanbul",
               "short_name" : "İstanbul",
               "types" : [ "administrative_area_level_1", "political" ]
            },
            {
               "long_name" : "Turkey",
               "short_name" : "TR",
               "types" : [ "country", "political" ]
            }
         ],
         "formatted_address" : "İstanbul, Turkey",
         "geometry" : {
            "bounds" : {
               "northeast" : {
                  "lat" : 41.58461,
                  "lng" : 29.915705
               },
               "southwest" : {
                  "lat" : 40.8026889,
                  "lng" : 27.971373
               }
            },
            "location" : {
               "lat" : 41.1634302,
               "lng" : 28.7664408
            },
            "location_type" : "APPROXIMATE",
            "viewport" : {
               "northeast" : {
                  "lat" : 41.58461,
                  "lng" : 29.915705
               },
               "southwest" : {
                  "lat" : 40.8026889,
                  "lng" : 27.971373
               }
            }
         },
         "place_id" : "ChIJexVgWlG2yhQR6B1akfSarCI",
         "types" : [ "administrative_area_level_1", "political" ]
      },
      {
         "address_components" : [
            {
               "long_name" : "Turkey",
               "short_name" : "TR",
               "types" : [ "country", "political" ]
            }
         ],
         "formatted_address" : "Turkey",
         "geometry" : {
            "bounds" : {
               "northeast" : {
                  "lat" : 42.3666999,
                  "lng" : 44.8178449
               },
               "southwest" : {
                  "lat" : 35.808592,
                  "lng" : 25.5377
               }
            },
            "location" : {
               "lat" : 38.963745,
               "lng" : 35.243322
            },
            "location_type" : "APPROXIMATE",
            "viewport" : {
               "northeast" : {
                  "lat" : 42.3666999,
                  "lng" : 44.8178449
               },
               "southwest" : {
                  "lat" : 35.808592,
                  "lng" : 25.5377
               }
            }
         },
         "place_id" : "ChIJcSZPllwVsBQRKl9iKtTb2UA",
         "types" : [ "country", "political" ]
      }
   ],
   "status" : "OK"
}
