{
   "plus_code" : {
      "compound_code" : "VJ9M+R5H Keşan/Edirne, Turkey",
      "global_code" : "8GG8VJ9M+R5H"
   },
   "results" : [
      {
         "address_components" : [
            {
               "long_name" : "6",
               "short_name" : "6",
               "types" : [ "street_number" ]
            },
            {
               "long_name" : "Doktor Sadık Ahmet Caddesi",
               "short_name" : "Dr. Sadık Ahmet Cd",
               "types" : [ "route" ]
            },
            {
               "long_name" : "İspat Cami Mh.",
               "short_name" : "İspat Cami Mh.",
               "types" : [ "administrative_area_level_4", "political" ]
            },
            {
               "long_name" : "Keşan",
               "short_name" : "Keşan",
               "types" : [ "administrative_area_level_2", "political" ]
            },
            {
               "long_name" : "Edirne",
               "short_name" : "Edirne",
               "types" : [ "administrative_area_level_1", "political" ]
            },
            {
               "long_name" : "Turkey",
               "short_name" : "TR",
               "types" : [ "country", "political" ]
            },
            {
               "long_name" : "22900",
               "short_name" : "22900",
               "types" : [ "postal_code" ]
            }
         ],
         "formatted_address" : "İspat Cami Mh., Dr. Sadık Ahmet Cd No:6, 22900 Keşan/Edirne, Turkey",
         "geometry" : {
            "location" : {
               "lat" : 40.869836,
               "lng" : 26.633006
            },
            "location_type" : "ROOFTOP",
            "viewport" : {
               "northeast" : {
                  "lat" : 40.8711849802915,
                  "lng" : 26.6343549802915
               },
               "southwest" : {
                  "lat" : 40.8684870197085,
                  "lng" : 26.63165701970849
               }
            }
         },
         "place_id" : "ChIJYeDIa7jHsxQRZvV8NqghNdY",
         "plus_code" : {
            "compound_code" : "VJ9M+W6 Keşan/Edirne, Turkey",
            "global_code" : "8GG8VJ9M+W6"
         },
         "types" : [ "street_address" ]
      },
      {
         "address_components" : [
            {
               "long_name" : "VJ9M+R5",
               "short_name" : "VJ9M+R5",
               "types" : [ "plus_code" ]
            },
            {
               "long_name" : "Keşan",
               "short_name" : "Keşan",
               "types" : [ "administrative_area_level_2", "political" ]
            },
            {
               "long_name" : "Edirne",
               "short_name" : "Edirne",
               "types" : [ "administrative_area_level_1", "political" ]
            },
            {
               "long_name" : "Turkey",
               "short_name" : "TR",
               "types" : [ "country", "political" ]
            }
         ],
         "formatted_address" : "VJ9M+R5 Keşan/Edirne, Turkey",
         "geometry" : {
            "bounds" : {
               "northeast" : {
                  "lat" : 40.869625,
                  "lng" : 26.633
               },
               "southwest" : {
                  "lat" : 40.8695,
                  "lng" : 26.632875
               }
            },
            "location" : {
               "lat" : 40.8695701,
               "lng" : 26.6329837
            },
            "location_type" : "GEOMETRIC_CENTER",
            "viewport" : {
               "northeast" : {
                  "lat" : 40.8709114802915,
                  "lng" : 26.6342864802915
               },
               "southwest" : {
                  "lat" : 40.8682135197085,
                  "lng" : 26.63158851970849
               }
            }
         },
         "place_id" : "GhIJK4qyEk5vREARrWZCOAuiOkA",
         "plus_code" : {
            "compound_code" : "VJ9M+R5 Keşan/Edirne, Turkey",
            "global_code" : "8GG8VJ9M+R5"
         },
         "types" : [ "plus_code" ]
      },
      {
         "address_components" : [
            {
               "long_name" : "3",
               "short_name" : "3",
               "types" : [ "street_number" ]
            },
            {
               "long_name" : "Nuri Tanışman Sokak",
               "short_name" : "Nuri Tanışman Sk.",
               "types" : [ "route" ]
            },
            {
               "long_name" : "İspat Cami",
               "short_name" : "İspat Cami",
               "types" : [ "administrative_area_level_4", "political" ]
            },
            {
               "long_name" : "Keşan",
               "short_name" : "Keşan",
               "types" : [ "administrative_area_level_2", "political" ]
            },
            {
               "long_name" : "Edirne",
               "short_name" : "Edirne",
               "types" : [ "administrative_area_level_1", "political" ]
            },
            {
               "long_name" : "Turkey",
               "short_name" : "TR",
               "types" : [ "country", "political" ]
            },
            {
               "long_name" : "22900",
               "short_name" : "22900",
               "types" : [ "postal_code" ]
            }
         ],
         "formatted_address" : "İspat Cami, Nuri Tanışman Sk. No:3, 22900 Keşan/Edirne, Turkey",
         "geometry" : {
            "location" : {
               "lat" : 40.869267,
               "lng" : 26.6321195
            },
            "location_type" : "RANGE_INTERPOLATED",
            "viewport" : {
               "northeast" : {
                  "lat" : 40.8706159802915,
                  "lng" : 26.6334684802915
               },
               "southwest" : {
                  "lat" : 40.8679180197085,
                  "lng" : 26.63077051970849
               }
            }
         },
         "place_id" : "EkLEsHNwYXQgQ2FtaSwgTnVyaSBUYW7EscWfbWFuIFNrLiBObzozLCAyMjkwMCBLZcWfYW4vRWRpcm5lLCBUdXJrZXkiGhIYChQKEgn1TxgGuMezFBE9TGw7Je9DiRAD",
         "types" : [ "street_address" ]
      },
      {
         "address_components" : [
            {
               "long_name" : "Nuri Tanışman Sokak",
               "short_name" : "Nuri Tanışman Sk.",
               "types" : [ "route" ]
            },
            {
               "long_name" : "İspat Cami",
               "short_name" : "İspat Cami",
               "types" : [ "administrative_area_level_4", "political" ]
            },
            {
               "long_name" : "Keşan",
               "short_name" : "Keşan",
               "types" : [ "administrative_area_level_2", "political" ]
            },
            {
               "long_name" : "Edirne",
               "short_name" : "Edirne",
               "types" : [ "administrative_area_level_1", "political" ]
            },
            {
               "long_name" : "Turkey",
               "short_name" : "TR",
               "types" : [ "country", "political" ]
            },
            {
               "long_name" : "22900",
               "short_name" : "22900",
               "types" : [ "postal_code" ]
            }
         ],
         "formatted_address" : "İspat Cami, Nuri Tanışman Sk., 22900 Keşan/Edirne, Turkey",
         "geometry" : {
            "bounds" : {
               "northeast" : {
                  "lat" : 40.8691632,
                  "lng" : 26.63289
               },
               "southwest" : {
                  "lat" : 40.8690502,
                  "lng" : 26.6324536
               }
            },
            "location" : {
               "lat" : 40.8691067,
               "lng" : 26.6326718
            },
            "location_type" : "GEOMETRIC_CENTER",
            "viewport" : {
               "northeast" : {
                  "lat" : 40.87045568029149,
                  "lng" : 26.6340207802915
               },
               "southwest" : {
                  "lat" : 40.86775771970849,
                  "lng" : 26.6313228197085
               }
            }
         },
         "place_id" : "ChIJy4J2ELjHsxQRclRTfD3rOt0",
         "types" : [ "route" ]
      },
      {
         "address_components" : [
            {
               "long_name" : "22900",
               "short_name" : "22900",
               "types" : [ "postal_code" ]
            },
            {
               "long_name" : "İspat Cami",
               "short_name" : "İspat Cami",
               "types" : [ "administrative_area_level_4", "political" ]
            },
            {
               "long_name" : "Keşan",
               "short_name" : "Keşan",
               "types" : [ "administrative_area_level_2", "political" ]
            },
            {
               "long_name" : "Edirne",
               "short_name" : "Edirne",
               "types" : [ "administrative_area_level_1", "political" ]
            },
            {
               "long_name" : "Turkey",
               "short_name" : "TR",
               "types" : [ "country", "political" ]
            }
         ],
         "formatted_address" : "İspat Cami, 22900 Keşan/Edirne, Turkey",
         "geometry" : {
            "bounds" : {
               "northeast" : {
                  "lat" : 40.8751651,
                  "lng" : 26.6470111
               },
               "southwest" : {
                  "lat" : 40.855382,
                  "lng" : 26.6178179
               }
            },
            "location" : {
               "lat" : 40.8656494,
               "lng" : 26.6346995
            },
            "location_type" : "APPROXIMATE",
            "viewport" : {
               "northeast" : {
                  "lat" : 40.8751651,
                  "lng" : 26.6470111
               },
               "southwest" : {
                  "lat" : 40.855382,
                  "lng" : 26.6178179
               }
            }
         },
         "place_id" : "ChIJfT9BI7bHsxQR0kjAPg1RcSo",
         "types" : [ "postal_code" ]
      },
      {
         "address_components" : [
            {
               "long_name" : "İspat Cami",
               "short_name" : "İspat Cami",
               "types" : [ "administrative_area_level_4", "political" ]
            },
            {
               "long_name" : "Keşan",
               "short_name" : "Keşan",
               "types" : [ "administrative_area_level_2", "political" ]
            },
            {
               "long_name" : "Edirne",
               "short_name" : "Edirne",
               "types" : [ "administrative_area_level_1", "political" ]
            },
            {
               "long_name" : "Turkey",
               "short_name" : "TR",
               "types" : [ "country", "political" ]
            }
         ],
         "formatted_address" : "İspat Cami, Keşan/Edirne, Turkey",
         "geometry" : {
            "bounds" : {
               "northeast" : {
                  "lat" : 40.8751651,
                  "lng" : 26.6470111
               },
               "southwest" : {
                  "lat" : 40.855382,
                  "lng" : 26.6178179
               }
            },
            "location" : {
               "lat" : 40.8656494,
               "lng" : 26.6346995
            },
            "location_type" : "APPROXIMATE",
            "viewport" : {
               "northeast" : {
                  "lat" : 40.8751651,
                  "lng" : 26.6470111
               },
               "southwest" : {
                  "lat" : 40.855382,
                  "lng" : 26.6178179
               }
            }
         },
         "place_id" : "ChIJVcmiKrbHsxQR3OgrAvPHjvg",
         "types" : [ "administrative_area_level_4", "political" ]
      },
      {
         "address_components" : [
            {
               "long_name" : "Keşan",
               "short_name" : "Keşan",
               "types" : [ "locality", "political" ]
            },
            {
               "long_name" : "Keşan",
               "short_name" : "Keşan",
               "types" : [ "administrative_area_level_2", "political" ]
            },
            {
               "long_name" : "Edirne",
               "short_name" : "Edirne",
               "types" : [ "administrative_area_level_1", "political" ]
            },
            {
               "long_name" : "Turkey",
               "short_name" : "TR",
               "types" : [ "country", "political" ]
            }
         ],
         "formatted_address" : "Keşan, Edirne, Turkey",
         "geometry" : {
            "bounds" : {
               "northeast" : {
                  "lat" : 40.882872,
                  "lng" : 26.6558339
               },
               "southwest" : {
                  "lat" : 40.8380349,
                  "lng" : 26.6195168
               }
            },
            "location" : {
               "lat" : 40.858615,
               "lng" : 26.630041
            },
            "location_type" : "APPROXIMATE",
            "viewport" : {
               "northeast" : {
                  "lat" : 40.882872,
                  "lng" : 26.6558339
               },
               "southwest" : {
                  "lat" : 40.8380349,
                  "lng" : 26.6195168
               }
            }
         },
         "place_id" : "ChIJB-p0LErGsxQRasT3awgTOc8",
         "types" : [ "locality", "political" ]
      },
      {
         "address_components" : [
            {
               "long_name" : "Keşan",
               "short_name" : "Keşan",
               "types" : [ "administrative_area_level_2", "political" ]
            },
            {
               "long_name" : "Edirne",
               "short_name" : "Edirne",
               "types" : [ "administrative_area_level_1", "political" ]
            },
            {
               "long_name" : "Turkey",
               "short_name" : "TR",
               "types" : [ "country", "political" ]
            }
         ],
         "formatted_address" : "Keşan/Edirne, Turkey",
         "geometry" : {
            "bounds" : {
               "northeast" : {
                  "lat" : 41.04460100000001,
                  "lng" : 26.7885999
               },
               "southwest" : {
                  "lat" : 40.5919159,
                  "lng" : 26.3265241
               }
            },
            "location" : {
               "lat" : 40.8014295,
               "lng" : 26.5609857
            },
            "location_type" : "APPROXIMATE",
            "viewport" : {
               "northeast" : {
                  "lat" : 41.04460100000001,
                  "lng" : 26.7885999
               },
               "southwest" : {
                  "lat" : 40.5919159,
                  "lng" : 26.3265241
               }
            }
         },
         "place_id" : "ChIJGwJvDB_PsxQRUlLZIU_3NTQ",
         "types" : [ "administrative_area_level_2", "political" ]
      },
      {
         "address_components" : [
            {
               "long_name" : "Edirne",
               "short_name" : "Edirne",
               "types" : [ "administrative_area_level_1", "political" ]
            },
            {
               "long_name" : "Turkey",
               "short_name" : "TR",
               "types" : [ "country", "political" ]
            }
         ],
         "formatted_address" : "Edirne, Turkey",
         "geometry" : {
            "bounds" : {
               "northeast" : {
                  "lat" : 42.001854,
                  "lng" : 27.013508
               },
               "southwest" : {
                  "lat" : 40.589595,
                  "lng" : 26.0350719
               }
            },
            "location" : {
               "lat" : 41.15172219999999,
               "lng" : 26.5137964
            },
            "location_type" : "APPROXIMATE",
            "viewport" : {
               "northeast" : {
                  "lat" : 42.001854,
                  "lng" : 27.013508
               },
               "southwest" : {
                  "lat" : 40.589595,
                  "lng" : 26.0350719
               }
            }
         },
         "place_id" : "ChIJ4-ghsqgGsxQR8pJnsFPeVsI",
         "types" : [ "administrative_area_level_1", "political" ]
      },
      {
         "address_components" : [
            {
               "long_name" : "Turkey",
               "short_name" : "TR",
               "types" : [ "country", "political" ]
            }
         ],
         "formatted_address" : "Turkey",
         "geometry" : {
            "bounds" : {
               "northeast" : {
                  "lat" : 42.3666999,
                  "lng" : 44.8178449
               },
               "southwest" : {
                  "lat" : 35.808592,
                  "lng" : 25.5377
               }
            },
            "location" : {
               "lat" : 38.963745,
               "lng" : 35.243322
            },
            "location_type" : "APPROXIMATE",
            "viewport" : {
               "northeast" : {
                  "lat" : 42.3666999,
                  "lng" : 44.8178449
               },
               "southwest" : {
                  "lat" : 35.808592,
                  "lng" : 25.5377
               }
            }
         },
         "place_id" : "ChIJcSZPllwVsBQRKl9iKtTb2UA",
         "types" : [ "country", "political" ]
      }
   ],
   "status" : "OK"
}
