{
   "plus_code" : {
      "compound_code" : "3HVP+XQ3 Akçalı/Çanakkale Merkez/Çanakkale, Turkey",
      "global_code" : "8GG83HVP+XQ3"
   },
   "results" : [
      {
         "address_components" : [
            {
               "long_name" : "3HVP+XQ",
               "short_name" : "3HVP+XQ",
               "types" : [ "plus_code" ]
            },
            {
               "long_name" : "Akçalı",
               "short_name" : "Akçalı",
               "types" : [ "administrative_area_level_3", "political" ]
            },
            {
               "long_name" : "Çanakkale Merkez",
               "short_name" : "Çanakkale Merkez",
               "types" : [ "administrative_area_level_2", "political" ]
            },
            {
               "long_name" : "Çanakkale",
               "short_name" : "Çanakkale",
               "types" : [ "administrative_area_level_1", "political" ]
            },
            {
               "long_name" : "Turkey",
               "short_name" : "TR",
               "types" : [ "country", "political" ]
            }
         ],
         "formatted_address" : "3HVP+XQ Akçalı/Çanakkale Merkez/Çanakkale, Turkey",
         "geometry" : {
            "bounds" : {
               "northeast" : {
                  "lat" : 40.095,
                  "lng" : 26.587
               },
               "southwest" : {
                  "lat" : 40.09487499999999,
                  "lng" : 26.586875
               }
            },
            "location" : {
               "lat" : 40.0948821,
               "lng" : 26.5869141
            },
            "location_type" : "GEOMETRIC_CENTER",
            "viewport" : {
               "northeast" : {
                  "lat" : 40.0962864802915,
                  "lng" : 26.5882864802915
               },
               "southwest" : {
                  "lat" : 40.0935885197085,
                  "lng" : 26.5855885197085
               }
            }
         },
         "place_id" : "GhIJ5zy-GCUMREARrw-hAECWOkA",
         "plus_code" : {
            "compound_code" : "3HVP+XQ Akçalı/Çanakkale Merkez/Çanakkale, Turkey",
            "global_code" : "8GG83HVP+XQ"
         },
         "types" : [ "plus_code" ]
      },
      {
         "address_components" : [
            {
               "long_name" : "Unnamed Road",
               "short_name" : "Unnamed Road",
               "types" : [ "route" ]
            },
            {
               "long_name" : "Çanakkale Merkez",
               "short_name" : "Çanakkale Merkez",
               "types" : [ "administrative_area_level_2", "political" ]
            },
            {
               "long_name" : "Çanakkale",
               "short_name" : "Çanakkale",
               "types" : [ "administrative_area_level_1", "political" ]
            },
            {
               "long_name" : "Turkey",
               "short_name" : "TR",
               "types" : [ "country", "political" ]
            },
            {
               "long_name" : "17100",
               "short_name" : "17100",
               "types" : [ "postal_code" ]
            }
         ],
         "formatted_address" : "Unnamed Road, 17100 Çanakkale Merkez/Çanakkale, Turkey",
         "geometry" : {
            "bounds" : {
               "northeast" : {
                  "lat" : 40.0902791,
                  "lng" : 26.608305
               },
               "southwest" : {
                  "lat" : 40.0834375,
                  "lng" : 26.5597574
               }
            },
            "location" : {
               "lat" : 40.08384460000001,
               "lng" : 26.583675
            },
            "location_type" : "GEOMETRIC_CENTER",
            "viewport" : {
               "northeast" : {
                  "lat" : 40.0902791,
                  "lng" : 26.608305
               },
               "southwest" : {
                  "lat" : 40.0834375,
                  "lng" : 26.5597574
               }
            }
         },
         "place_id" : "ChIJeVsAL5YEsRQRyvfR_VGJHZ4",
         "types" : [ "route" ]
      },
      {
         "address_components" : [
            {
               "long_name" : "Akçalı",
               "short_name" : "Akçalı",
               "types" : [ "administrative_area_level_3", "political" ]
            },
            {
               "long_name" : "Çanakkale Merkez",
               "short_name" : "Çanakkale Merkez",
               "types" : [ "administrative_area_level_2", "political" ]
            },
            {
               "long_name" : "Çanakkale",
               "short_name" : "Çanakkale",
               "types" : [ "administrative_area_level_1", "political" ]
            },
            {
               "long_name" : "Turkey",
               "short_name" : "TR",
               "types" : [ "country", "political" ]
            }
         ],
         "formatted_address" : "Akçalı/Çanakkale Merkez/Çanakkale, Turkey",
         "geometry" : {
            "bounds" : {
               "northeast" : {
                  "lat" : 40.11658,
                  "lng" : 26.638185
               },
               "southwest" : {
                  "lat" : 40.064167,
                  "lng" : 26.578459
               }
            },
            "location" : {
               "lat" : 40.0909247,
               "lng" : 26.6140621
            },
            "location_type" : "APPROXIMATE",
            "viewport" : {
               "northeast" : {
                  "lat" : 40.11658,
                  "lng" : 26.638185
               },
               "southwest" : {
                  "lat" : 40.064167,
                  "lng" : 26.578459
               }
            }
         },
         "place_id" : "ChIJi2suUUkbsRQRPuxBbF9_KN4",
         "types" : [ "administrative_area_level_3", "political" ]
      },
      {
         "address_components" : [
            {
               "long_name" : "17100",
               "short_name" : "17100",
               "types" : [ "postal_code" ]
            },
            {
               "long_name" : "Çanakkale Merkez",
               "short_name" : "Çanakkale Merkez",
               "types" : [ "administrative_area_level_2", "political" ]
            },
            {
               "long_name" : "Çanakkale",
               "short_name" : "Çanakkale",
               "types" : [ "administrative_area_level_1", "political" ]
            },
            {
               "long_name" : "Turkey",
               "short_name" : "TR",
               "types" : [ "country", "political" ]
            }
         ],
         "formatted_address" : "17100 Çanakkale Merkez/Çanakkale, Turkey",
         "geometry" : {
            "bounds" : {
               "northeast" : {
                  "lat" : 40.1088691,
                  "lng" : 26.6487
               },
               "southwest" : {
                  "lat" : 40.0542779,
                  "lng" : 26.5651069
               }
            },
            "location" : {
               "lat" : 40.080974,
               "lng" : 26.5963713
            },
            "location_type" : "APPROXIMATE",
            "viewport" : {
               "northeast" : {
                  "lat" : 40.1088691,
                  "lng" : 26.6487
               },
               "southwest" : {
                  "lat" : 40.0542779,
                  "lng" : 26.5651069
               }
            }
         },
         "place_id" : "ChIJHZ9JPLMEsRQRJSto_Kb0YCo",
         "types" : [ "postal_code" ]
      },
      {
         "address_components" : [
            {
               "long_name" : "Çanakkale Merkez",
               "short_name" : "Çanakkale Merkez",
               "types" : [ "administrative_area_level_2", "political" ]
            },
            {
               "long_name" : "Çanakkale",
               "short_name" : "Çanakkale",
               "types" : [ "administrative_area_level_1", "political" ]
            },
            {
               "long_name" : "Turkey",
               "short_name" : "TR",
               "types" : [ "country", "political" ]
            }
         ],
         "formatted_address" : "Çanakkale Merkez/Çanakkale, Turkey",
         "geometry" : {
            "bounds" : {
               "northeast" : {
                  "lat" : 40.23309800000001,
                  "lng" : 26.837863
               },
               "southwest" : {
                  "lat" : 39.908054,
                  "lng" : 26.1706739
               }
            },
            "location" : {
               "lat" : 40.0917592,
               "lng" : 26.5137964
            },
            "location_type" : "APPROXIMATE",
            "viewport" : {
               "northeast" : {
                  "lat" : 40.23309800000001,
                  "lng" : 26.837863
               },
               "southwest" : {
                  "lat" : 39.908054,
                  "lng" : 26.1706739
               }
            }
         },
         "place_id" : "ChIJF_cQemYBsRQRurKQEsplSdw",
         "types" : [ "administrative_area_level_2", "political" ]
      },
      {
         "address_components" : [
            {
               "long_name" : "Çanakkale",
               "short_name" : "Çanakkale",
               "types" : [ "administrative_area_level_1", "political" ]
            },
            {
               "long_name" : "Turkey",
               "short_name" : "TR",
               "types" : [ "country", "political" ]
            }
         ],
         "formatted_address" : "Çanakkale, Turkey",
         "geometry" : {
            "bounds" : {
               "northeast" : {
                  "lat" : 40.762184,
                  "lng" : 27.540341
               },
               "southwest" : {
                  "lat" : 39.453307,
                  "lng" : 25.665307
               }
            },
            "location" : {
               "lat" : 40.0510104,
               "lng" : 26.9852422
            },
            "location_type" : "APPROXIMATE",
            "viewport" : {
               "northeast" : {
                  "lat" : 40.762184,
                  "lng" : 27.540341
               },
               "southwest" : {
                  "lat" : 39.453307,
                  "lng" : 25.665307
               }
            }
         },
         "place_id" : "ChIJq7A1iKJHsBQRVemXvUVtCwQ",
         "types" : [ "administrative_area_level_1", "political" ]
      },
      {
         "address_components" : [
            {
               "long_name" : "Turkey",
               "short_name" : "TR",
               "types" : [ "country", "political" ]
            }
         ],
         "formatted_address" : "Turkey",
         "geometry" : {
            "bounds" : {
               "northeast" : {
                  "lat" : 42.3666999,
                  "lng" : 44.8178449
               },
               "southwest" : {
                  "lat" : 35.808592,
                  "lng" : 25.5377
               }
            },
            "location" : {
               "lat" : 38.963745,
               "lng" : 35.243322
            },
            "location_type" : "APPROXIMATE",
            "viewport" : {
               "northeast" : {
                  "lat" : 42.3666999,
                  "lng" : 44.8178449
               },
               "southwest" : {
                  "lat" : 35.808592,
                  "lng" : 25.5377
               }
            }
         },
         "place_id" : "ChIJcSZPllwVsBQRKl9iKtTb2UA",
         "types" : [ "country", "political" ]
      }
   ],
   "status" : "OK"
}
