{
   "plus_code" : {
      "compound_code" : "PJW5+HQQ Bolu Merkez/Bolu, Turkey",
      "global_code" : "8GGHPJW5+HQQ"
   },
   "results" : [
      {
         "address_components" : [
            {
               "long_name" : "14",
               "short_name" : "14",
               "types" : [ "street_number" ]
            },
            {
               "long_name" : "Şenevler Sokak",
               "short_name" : "Şenevler Sk.",
               "types" : [ "route" ]
            },
            {
               "long_name" : "Sağlık",
               "short_name" : "Sağlık",
               "types" : [ "administrative_area_level_4", "political" ]
            },
            {
               "long_name" : "Bolu Merkez",
               "short_name" : "Bolu Merkez",
               "types" : [ "administrative_area_level_2", "political" ]
            },
            {
               "long_name" : "Bolu",
               "short_name" : "Bolu",
               "types" : [ "administrative_area_level_1", "political" ]
            },
            {
               "long_name" : "Turkey",
               "short_name" : "TR",
               "types" : [ "country", "political" ]
            },
            {
               "long_name" : "14300",
               "short_name" : "14300",
               "types" : [ "postal_code" ]
            }
         ],
         "formatted_address" : "Sağlık, Şenevler Sk. No:14, 14300 Bolu Merkez/Bolu, Turkey",
         "geometry" : {
            "location" : {
               "lat" : 40.7465677,
               "lng" : 31.60953929999999
            },
            "location_type" : "ROOFTOP",
            "viewport" : {
               "northeast" : {
                  "lat" : 40.7479166802915,
                  "lng" : 31.61088828029149
               },
               "southwest" : {
                  "lat" : 40.7452187197085,
                  "lng" : 31.6081903197085
               }
            }
         },
         "place_id" : "ChIJaYllHAQ_nUAR_KDBq_l_9BU",
         "plus_code" : {
            "compound_code" : "PJW5+JR Bolu Merkez/Bolu, Turkey",
            "global_code" : "8GGHPJW5+JR"
         },
         "types" : [ "street_address" ]
      },
      {
         "address_components" : [
            {
               "long_name" : "60 Evler",
               "short_name" : "60 Evler",
               "types" : [ "establishment", "point_of_interest", "transit_station" ]
            },
            {
               "long_name" : "No:61",
               "short_name" : "No:61",
               "types" : [ "street_number" ]
            },
            {
               "long_name" : "Şenevler Sokak",
               "short_name" : "Şenevler Sk.",
               "types" : [ "route" ]
            },
            {
               "long_name" : "Sağlık",
               "short_name" : "Sağlık",
               "types" : [ "administrative_area_level_4", "political" ]
            },
            {
               "long_name" : "Bolu Merkez",
               "short_name" : "Bolu Merkez",
               "types" : [ "administrative_area_level_2", "political" ]
            },
            {
               "long_name" : "Bolu",
               "short_name" : "Bolu",
               "types" : [ "administrative_area_level_1", "political" ]
            },
            {
               "long_name" : "Turkey",
               "short_name" : "TR",
               "types" : [ "country", "political" ]
            },
            {
               "long_name" : "14300",
               "short_name" : "14300",
               "types" : [ "postal_code" ]
            }
         ],
         "formatted_address" : "Sağlık, 60 Evler, Şenevler Sk. No:61, 14300 Bolu Merkez/Bolu, Turkey",
         "geometry" : {
            "location" : {
               "lat" : 40.7466334,
               "lng" : 31.6096758
            },
            "location_type" : "ROOFTOP",
            "viewport" : {
               "northeast" : {
                  "lat" : 40.7479823802915,
                  "lng" : 31.6110247802915
               },
               "southwest" : {
                  "lat" : 40.7452844197085,
                  "lng" : 31.6083268197085
               }
            }
         },
         "place_id" : "ChIJBX2IHAQ_nUARd0-3rWV8gd0",
         "plus_code" : {
            "compound_code" : "PJW5+MV Bolu Merkez/Bolu, Turkey",
            "global_code" : "8GGHPJW5+MV"
         },
         "types" : [ "establishment", "point_of_interest", "transit_station" ]
      },
      {
         "address_components" : [
            {
               "long_name" : "9",
               "short_name" : "9",
               "types" : [ "street_number" ]
            },
            {
               "long_name" : "Şenevler Sokak",
               "short_name" : "Şenevler Sk.",
               "types" : [ "route" ]
            },
            {
               "long_name" : "Sağlık",
               "short_name" : "Sağlık",
               "types" : [ "administrative_area_level_4", "political" ]
            },
            {
               "long_name" : "Bolu Merkez",
               "short_name" : "Bolu Merkez",
               "types" : [ "administrative_area_level_2", "political" ]
            },
            {
               "long_name" : "Bolu",
               "short_name" : "Bolu",
               "types" : [ "administrative_area_level_1", "political" ]
            },
            {
               "long_name" : "Turkey",
               "short_name" : "TR",
               "types" : [ "country", "political" ]
            },
            {
               "long_name" : "14300",
               "short_name" : "14300",
               "types" : [ "postal_code" ]
            }
         ],
         "formatted_address" : "Sağlık, Şenevler Sk. No:9, 14300 Bolu Merkez/Bolu, Turkey",
         "geometry" : {
            "location" : {
               "lat" : 40.7463956,
               "lng" : 31.6100468
            },
            "location_type" : "ROOFTOP",
            "viewport" : {
               "northeast" : {
                  "lat" : 40.7477445802915,
                  "lng" : 31.6113957802915
               },
               "southwest" : {
                  "lat" : 40.7450466197085,
                  "lng" : 31.6086978197085
               }
            }
         },
         "place_id" : "ChIJmbIYPwQ_nUARwO2MXpgtAmc",
         "plus_code" : {
            "compound_code" : "PJW6+H2 Bolu Merkez/Bolu, Turkey",
            "global_code" : "8GGHPJW6+H2"
         },
         "types" : [ "establishment", "point_of_interest" ]
      },
      {
         "address_components" : [
            {
               "long_name" : "13",
               "short_name" : "13",
               "types" : [ "street_number" ]
            },
            {
               "long_name" : "Şenevler Sokak",
               "short_name" : "Şenevler Sk.",
               "types" : [ "route" ]
            },
            {
               "long_name" : "Sağlık",
               "short_name" : "Sağlık",
               "types" : [ "administrative_area_level_4", "political" ]
            },
            {
               "long_name" : "Bolu Merkez",
               "short_name" : "Bolu Merkez",
               "types" : [ "administrative_area_level_2", "political" ]
            },
            {
               "long_name" : "Bolu",
               "short_name" : "Bolu",
               "types" : [ "administrative_area_level_1", "political" ]
            },
            {
               "long_name" : "Turkey",
               "short_name" : "TR",
               "types" : [ "country", "political" ]
            },
            {
               "long_name" : "14300",
               "short_name" : "14300",
               "types" : [ "postal_code" ]
            }
         ],
         "formatted_address" : "Sağlık, Şenevler Sk. No:13, 14300 Bolu Merkez/Bolu, Turkey",
         "geometry" : {
            "location" : {
               "lat" : 40.746601,
               "lng" : 31.6096348
            },
            "location_type" : "RANGE_INTERPOLATED",
            "viewport" : {
               "northeast" : {
                  "lat" : 40.74794998029149,
                  "lng" : 31.6109837802915
               },
               "southwest" : {
                  "lat" : 40.7452520197085,
                  "lng" : 31.6082858197085
               }
            }
         },
         "place_id" : "Ej1TYcSfbMSxaywgxZ5lbmV2bGVyIFNrLiBObzoxMywgMTQzMDAgQm9sdSBNZXJrZXovQm9sdSwgVHVya2V5IhoSGAoUChIJMQeZGwQ_nUARPAu-0cXGEy4QDQ",
         "types" : [ "street_address" ]
      },
      {
         "address_components" : [
            {
               "long_name" : "PJW5+HQ",
               "short_name" : "PJW5+HQ",
               "types" : [ "plus_code" ]
            },
            {
               "long_name" : "Bolu Merkez",
               "short_name" : "Bolu Merkez",
               "types" : [ "administrative_area_level_2", "political" ]
            },
            {
               "long_name" : "Bolu",
               "short_name" : "Bolu",
               "types" : [ "administrative_area_level_1", "political" ]
            },
            {
               "long_name" : "Turkey",
               "short_name" : "TR",
               "types" : [ "country", "political" ]
            }
         ],
         "formatted_address" : "PJW5+HQ Bolu Merkez/Bolu, Turkey",
         "geometry" : {
            "bounds" : {
               "northeast" : {
                  "lat" : 40.7465,
                  "lng" : 31.6095
               },
               "southwest" : {
                  "lat" : 40.746375,
                  "lng" : 31.609375
               }
            },
            "location" : {
               "lat" : 40.7464726,
               "lng" : 31.6094792
            },
            "location_type" : "GEOMETRIC_CENTER",
            "viewport" : {
               "northeast" : {
                  "lat" : 40.7477864802915,
                  "lng" : 31.6107864802915
               },
               "southwest" : {
                  "lat" : 40.7450885197085,
                  "lng" : 31.6080885197085
               }
            }
         },
         "place_id" : "GhIJFy4GaoxfREARnpcv1AacP0A",
         "plus_code" : {
            "compound_code" : "PJW5+HQ Bolu Merkez/Bolu, Turkey",
            "global_code" : "8GGHPJW5+HQ"
         },
         "types" : [ "plus_code" ]
      },
      {
         "address_components" : [
            {
               "long_name" : "11-13",
               "short_name" : "11-13",
               "types" : [ "street_number" ]
            },
            {
               "long_name" : "Şenevler Sokak",
               "short_name" : "Şenevler Sk.",
               "types" : [ "route" ]
            },
            {
               "long_name" : "Sağlık",
               "short_name" : "Sağlık",
               "types" : [ "administrative_area_level_4", "political" ]
            },
            {
               "long_name" : "Bolu Merkez",
               "short_name" : "Bolu Merkez",
               "types" : [ "administrative_area_level_2", "political" ]
            },
            {
               "long_name" : "Bolu",
               "short_name" : "Bolu",
               "types" : [ "administrative_area_level_1", "political" ]
            },
            {
               "long_name" : "Turkey",
               "short_name" : "TR",
               "types" : [ "country", "political" ]
            },
            {
               "long_name" : "14300",
               "short_name" : "14300",
               "types" : [ "postal_code" ]
            }
         ],
         "formatted_address" : "Sağlık, Şenevler Sk. 11-13, 14300 Bolu Merkez/Bolu, Turkey",
         "geometry" : {
            "bounds" : {
               "northeast" : {
                  "lat" : 40.7466212,
                  "lng" : 31.6097831
               },
               "southwest" : {
                  "lat" : 40.7464932,
                  "lng" : 31.6096069
               }
            },
            "location" : {
               "lat" : 40.7465572,
               "lng" : 31.609695
            },
            "location_type" : "GEOMETRIC_CENTER",
            "viewport" : {
               "northeast" : {
                  "lat" : 40.7479061802915,
                  "lng" : 31.61104398029149
               },
               "southwest" : {
                  "lat" : 40.74520821970851,
                  "lng" : 31.6083460197085
               }
            }
         },
         "place_id" : "ChIJMQeZGwQ_nUARPAu-0cXGEy4",
         "types" : [ "route" ]
      },
      {
         "address_components" : [
            {
               "long_name" : "Sağlık",
               "short_name" : "Sağlık",
               "types" : [ "administrative_area_level_4", "political" ]
            },
            {
               "long_name" : "Bolu Merkez",
               "short_name" : "Bolu Merkez",
               "types" : [ "administrative_area_level_2", "political" ]
            },
            {
               "long_name" : "Bolu",
               "short_name" : "Bolu",
               "types" : [ "administrative_area_level_1", "political" ]
            },
            {
               "long_name" : "Turkey",
               "short_name" : "TR",
               "types" : [ "country", "political" ]
            },
            {
               "long_name" : "14300",
               "short_name" : "14300",
               "types" : [ "postal_code" ]
            }
         ],
         "formatted_address" : "Sağlık, 14300 Bolu Merkez/Bolu, Turkey",
         "geometry" : {
            "bounds" : {
               "northeast" : {
                  "lat" : 40.761457,
                  "lng" : 31.627798
               },
               "southwest" : {
                  "lat" : 40.738597,
                  "lng" : 31.604292
               }
            },
            "location" : {
               "lat" : 40.7476209,
               "lng" : 31.6124558
            },
            "location_type" : "APPROXIMATE",
            "viewport" : {
               "northeast" : {
                  "lat" : 40.761457,
                  "lng" : 31.627798
               },
               "southwest" : {
                  "lat" : 40.738597,
                  "lng" : 31.604292
               }
            }
         },
         "place_id" : "ChIJG4gP8AI_nUARRNAkz_DiCEc",
         "types" : [ "administrative_area_level_4", "political" ]
      },
      {
         "address_components" : [
            {
               "long_name" : "14300",
               "short_name" : "14300",
               "types" : [ "postal_code" ]
            },
            {
               "long_name" : "Bolu Merkez",
               "short_name" : "Bolu Merkez",
               "types" : [ "administrative_area_level_2", "political" ]
            },
            {
               "long_name" : "Bolu",
               "short_name" : "Bolu",
               "types" : [ "administrative_area_level_1", "political" ]
            },
            {
               "long_name" : "Turkey",
               "short_name" : "TR",
               "types" : [ "country", "political" ]
            }
         ],
         "formatted_address" : "14300 Bolu Merkez/Bolu, Turkey",
         "geometry" : {
            "bounds" : {
               "northeast" : {
                  "lat" : 40.763321,
                  "lng" : 31.627798
               },
               "southwest" : {
                  "lat" : 40.738597,
                  "lng" : 31.604292
               }
            },
            "location" : {
               "lat" : 40.7480255,
               "lng" : 31.6149417
            },
            "location_type" : "APPROXIMATE",
            "viewport" : {
               "northeast" : {
                  "lat" : 40.763321,
                  "lng" : 31.627798
               },
               "southwest" : {
                  "lat" : 40.738597,
                  "lng" : 31.604292
               }
            }
         },
         "place_id" : "ChIJpT1o6f0-nUARHZKgKSnD_mI",
         "types" : [ "postal_code" ]
      },
      {
         "address_components" : [
            {
               "long_name" : "Bolu",
               "short_name" : "Bolu",
               "types" : [ "locality", "political" ]
            },
            {
               "long_name" : "Bolu Merkez",
               "short_name" : "Bolu Merkez",
               "types" : [ "administrative_area_level_2", "political" ]
            },
            {
               "long_name" : "Bolu",
               "short_name" : "Bolu",
               "types" : [ "administrative_area_level_1", "political" ]
            },
            {
               "long_name" : "Turkey",
               "short_name" : "TR",
               "types" : [ "country", "political" ]
            }
         ],
         "formatted_address" : "Bolu, Bolu Merkez/Bolu, Turkey",
         "geometry" : {
            "bounds" : {
               "northeast" : {
                  "lat" : 40.765901,
                  "lng" : 31.6733381
               },
               "southwest" : {
                  "lat" : 40.705585,
                  "lng" : 31.5566029
               }
            },
            "location" : {
               "lat" : 40.732541,
               "lng" : 31.608209
            },
            "location_type" : "APPROXIMATE",
            "viewport" : {
               "northeast" : {
                  "lat" : 40.765901,
                  "lng" : 31.6733381
               },
               "southwest" : {
                  "lat" : 40.705585,
                  "lng" : 31.5566029
               }
            }
         },
         "place_id" : "ChIJ0QaE3BY_nUAR6YJLtTo2zIM",
         "types" : [ "locality", "political" ]
      },
      {
         "address_components" : [
            {
               "long_name" : "Bolu Merkez",
               "short_name" : "Bolu Merkez",
               "types" : [ "administrative_area_level_2", "political" ]
            },
            {
               "long_name" : "Bolu",
               "short_name" : "Bolu",
               "types" : [ "administrative_area_level_1", "political" ]
            },
            {
               "long_name" : "Turkey",
               "short_name" : "TR",
               "types" : [ "country", "political" ]
            }
         ],
         "formatted_address" : "Bolu Merkez/Bolu, Turkey",
         "geometry" : {
            "bounds" : {
               "northeast" : {
                  "lat" : 40.989738,
                  "lng" : 31.992709
               },
               "southwest" : {
                  "lat" : 40.526821,
                  "lng" : 31.2966451
               }
            },
            "location" : {
               "lat" : 40.7652553,
               "lng" : 31.6880086
            },
            "location_type" : "APPROXIMATE",
            "viewport" : {
               "northeast" : {
                  "lat" : 40.989738,
                  "lng" : 31.992709
               },
               "southwest" : {
                  "lat" : 40.526821,
                  "lng" : 31.2966451
               }
            }
         },
         "place_id" : "ChIJwyue7-o-nUARWseXIaYd-QU",
         "types" : [ "administrative_area_level_2", "political" ]
      },
      {
         "address_components" : [
            {
               "long_name" : "Bolu",
               "short_name" : "Bolu",
               "types" : [ "administrative_area_level_1", "political" ]
            },
            {
               "long_name" : "Turkey",
               "short_name" : "TR",
               "types" : [ "country", "political" ]
            }
         ],
         "formatted_address" : "Bolu, Turkey",
         "geometry" : {
            "bounds" : {
               "northeast" : {
                  "lat" : 41.02376,
                  "lng" : 32.584453
               },
               "southwest" : {
                  "lat" : 40.132428,
                  "lng" : 30.562295
               }
            },
            "location" : {
               "lat" : 40.5759766,
               "lng" : 31.5788086
            },
            "location_type" : "APPROXIMATE",
            "viewport" : {
               "northeast" : {
                  "lat" : 41.02376,
                  "lng" : 32.584453
               },
               "southwest" : {
                  "lat" : 40.132428,
                  "lng" : 30.562295
               }
            }
         },
         "place_id" : "ChIJS5YnrBE_nUARrD5lYVDtAMo",
         "types" : [ "administrative_area_level_1", "political" ]
      },
      {
         "address_components" : [
            {
               "long_name" : "Turkey",
               "short_name" : "TR",
               "types" : [ "country", "political" ]
            }
         ],
         "formatted_address" : "Turkey",
         "geometry" : {
            "bounds" : {
               "northeast" : {
                  "lat" : 42.3666999,
                  "lng" : 44.8178449
               },
               "southwest" : {
                  "lat" : 35.808592,
                  "lng" : 25.5377
               }
            },
            "location" : {
               "lat" : 38.963745,
               "lng" : 35.243322
            },
            "location_type" : "APPROXIMATE",
            "viewport" : {
               "northeast" : {
                  "lat" : 42.3666999,
                  "lng" : 44.8178449
               },
               "southwest" : {
                  "lat" : 35.808592,
                  "lng" : 25.5377
               }
            }
         },
         "place_id" : "ChIJcSZPllwVsBQRKl9iKtTb2UA",
         "types" : [ "country", "political" ]
      }
   ],
   "status" : "OK"
}
