{
   "plus_code" : {
      "compound_code" : "QXH2+R2 İzmit/Kocaeli, Turkey",
      "global_code" : "8GGFQXH2+R2"
   },
   "results" : [
      {
         "address_components" : [
            {
               "long_name" : "137",
               "short_name" : "137",
               "types" : [ "street_number" ]
            },
            {
               "long_name" : "Başaran Caddesi",
               "short_name" : "Başaran Cd.",
               "types" : [ "route" ]
            },
            {
               "long_name" : "Bekirdere",
               "short_name" : "Bekirdere",
               "types" : [ "administrative_area_level_4", "political" ]
            },
            {
               "long_name" : "İzmit",
               "short_name" : "İzmit",
               "types" : [ "administrative_area_level_2", "political" ]
            },
            {
               "long_name" : "Kocaeli",
               "short_name" : "Kocaeli",
               "types" : [ "administrative_area_level_1", "political" ]
            },
            {
               "long_name" : "Turkey",
               "short_name" : "TR",
               "types" : [ "country", "political" ]
            },
            {
               "long_name" : "41060",
               "short_name" : "41060",
               "types" : [ "postal_code" ]
            }
         ],
         "formatted_address" : "Bekirdere, Başaran Cd. No:137, 41060 İzmit/Kocaeli, Turkey",
         "geometry" : {
            "location" : {
               "lat" : 40.7796117,
               "lng" : 29.9501888
            },
            "location_type" : "ROOFTOP",
            "viewport" : {
               "northeast" : {
                  "lat" : 40.78096068029151,
                  "lng" : 29.9515377802915
               },
               "southwest" : {
                  "lat" : 40.77826271970851,
                  "lng" : 29.9488398197085
               }
            }
         },
         "place_id" : "ChIJLTgFkr9PyxQRkR7dinxhop8",
         "plus_code" : {
            "compound_code" : "QXH2+R3 İzmit/Kocaeli, Turkey",
            "global_code" : "8GGFQXH2+R3"
         },
         "types" : [ "street_address" ]
      },
      {
         "address_components" : [
            {
               "long_name" : "170",
               "short_name" : "170",
               "types" : [ "street_number" ]
            },
            {
               "long_name" : "Başaran Caddesi",
               "short_name" : "Başaran Cd.",
               "types" : [ "route" ]
            },
            {
               "long_name" : "Bekirdere",
               "short_name" : "Bekirdere",
               "types" : [ "administrative_area_level_4", "political" ]
            },
            {
               "long_name" : "İzmit",
               "short_name" : "İzmit",
               "types" : [ "administrative_area_level_2", "political" ]
            },
            {
               "long_name" : "Kocaeli",
               "short_name" : "Kocaeli",
               "types" : [ "administrative_area_level_1", "political" ]
            },
            {
               "long_name" : "Turkey",
               "short_name" : "TR",
               "types" : [ "country", "political" ]
            },
            {
               "long_name" : "41060",
               "short_name" : "41060",
               "types" : [ "postal_code" ]
            }
         ],
         "formatted_address" : "Bekirdere, Başaran Cd. No:170, 41060 İzmit/Kocaeli, Turkey",
         "geometry" : {
            "location" : {
               "lat" : 40.7795963,
               "lng" : 29.9502974
            },
            "location_type" : "RANGE_INTERPOLATED",
            "viewport" : {
               "northeast" : {
                  "lat" : 40.7809452802915,
                  "lng" : 29.9516463802915
               },
               "southwest" : {
                  "lat" : 40.7782473197085,
                  "lng" : 29.9489484197085
               }
            }
         },
         "place_id" : "EjxCZWtpcmRlcmUsIEJhxZ9hcmFuIENkLiBObzoxNzAsIDQxMDYwIMSwem1pdC9Lb2NhZWxpLCBUdXJrZXkiGxIZChQKEgkVtu2Nv0_LFBEw4-agquB_PxCqAQ",
         "types" : [ "street_address" ]
      },
      {
         "address_components" : [
            {
               "long_name" : "QXH2+R2",
               "short_name" : "QXH2+R2",
               "types" : [ "plus_code" ]
            },
            {
               "long_name" : "İzmit",
               "short_name" : "İzmit",
               "types" : [ "administrative_area_level_2", "political" ]
            },
            {
               "long_name" : "Kocaeli",
               "short_name" : "Kocaeli",
               "types" : [ "administrative_area_level_1", "political" ]
            },
            {
               "long_name" : "Turkey",
               "short_name" : "TR",
               "types" : [ "country", "political" ]
            }
         ],
         "formatted_address" : "QXH2+R2 İzmit/Kocaeli, Turkey",
         "geometry" : {
            "bounds" : {
               "northeast" : {
                  "lat" : 40.779625,
                  "lng" : 29.950125
               },
               "southwest" : {
                  "lat" : 40.7795,
                  "lng" : 29.95
               }
            },
            "location" : {
               "lat" : 40.77950149999999,
               "lng" : 29.9501038
            },
            "location_type" : "GEOMETRIC_CENTER",
            "viewport" : {
               "northeast" : {
                  "lat" : 40.78091148029149,
                  "lng" : 29.9514114802915
               },
               "southwest" : {
                  "lat" : 40.77821351970849,
                  "lng" : 29.9487135197085
               }
            }
         },
         "place_id" : "GhIJateEtMZjREARKc6sADrzPUA",
         "plus_code" : {
            "compound_code" : "QXH2+R2 İzmit/Kocaeli, Turkey",
            "global_code" : "8GGFQXH2+R2"
         },
         "types" : [ "plus_code" ]
      },
      {
         "address_components" : [
            {
               "long_name" : "166-178",
               "short_name" : "166-178",
               "types" : [ "street_number" ]
            },
            {
               "long_name" : "Başaran Caddesi",
               "short_name" : "Başaran Cd.",
               "types" : [ "route" ]
            },
            {
               "long_name" : "Bekirdere",
               "short_name" : "Bekirdere",
               "types" : [ "administrative_area_level_4", "political" ]
            },
            {
               "long_name" : "İzmit",
               "short_name" : "İzmit",
               "types" : [ "administrative_area_level_2", "political" ]
            },
            {
               "long_name" : "Kocaeli",
               "short_name" : "Kocaeli",
               "types" : [ "administrative_area_level_1", "political" ]
            },
            {
               "long_name" : "Turkey",
               "short_name" : "TR",
               "types" : [ "country", "political" ]
            },
            {
               "long_name" : "41060",
               "short_name" : "41060",
               "types" : [ "postal_code" ]
            }
         ],
         "formatted_address" : "Bekirdere, Başaran Cd. 166-178, 41060 İzmit/Kocaeli, Turkey",
         "geometry" : {
            "bounds" : {
               "northeast" : {
                  "lat" : 40.7798867,
                  "lng" : 29.9504502
               },
               "southwest" : {
                  "lat" : 40.7793601,
                  "lng" : 29.9501095
               }
            },
            "location" : {
               "lat" : 40.7796234,
               "lng" : 29.9502799
            },
            "location_type" : "GEOMETRIC_CENTER",
            "viewport" : {
               "northeast" : {
                  "lat" : 40.78097238029149,
                  "lng" : 29.9516288302915
               },
               "southwest" : {
                  "lat" : 40.7782744197085,
                  "lng" : 29.9489308697085
               }
            }
         },
         "place_id" : "ChIJFbbtjb9PyxQRMOPmoKrgfz8",
         "types" : [ "route" ]
      },
      {
         "address_components" : [
            {
               "long_name" : "41060",
               "short_name" : "41060",
               "types" : [ "postal_code" ]
            },
            {
               "long_name" : "Bekirdere",
               "short_name" : "Bekirdere",
               "types" : [ "administrative_area_level_4", "political" ]
            },
            {
               "long_name" : "İzmit",
               "short_name" : "İzmit",
               "types" : [ "administrative_area_level_2", "political" ]
            },
            {
               "long_name" : "Kocaeli",
               "short_name" : "Kocaeli",
               "types" : [ "administrative_area_level_1", "political" ]
            },
            {
               "long_name" : "Turkey",
               "short_name" : "TR",
               "types" : [ "country", "political" ]
            }
         ],
         "formatted_address" : "Bekirdere, 41060 İzmit/Kocaeli, Turkey",
         "geometry" : {
            "bounds" : {
               "northeast" : {
                  "lat" : 40.7860501,
                  "lng" : 29.960984
               },
               "southwest" : {
                  "lat" : 40.77243800000001,
                  "lng" : 29.9440689
               }
            },
            "location" : {
               "lat" : 40.778778,
               "lng" : 29.9523716
            },
            "location_type" : "APPROXIMATE",
            "viewport" : {
               "northeast" : {
                  "lat" : 40.7860501,
                  "lng" : 29.960984
               },
               "southwest" : {
                  "lat" : 40.77243800000001,
                  "lng" : 29.9440689
               }
            }
         },
         "place_id" : "ChIJP-jdQsBPyxQRhwoPzHXxopU",
         "types" : [ "postal_code" ]
      },
      {
         "address_components" : [
            {
               "long_name" : "Bekirdere",
               "short_name" : "Bekirdere",
               "types" : [ "administrative_area_level_4", "political" ]
            },
            {
               "long_name" : "İzmit",
               "short_name" : "İzmit",
               "types" : [ "administrative_area_level_2", "political" ]
            },
            {
               "long_name" : "Kocaeli",
               "short_name" : "Kocaeli",
               "types" : [ "administrative_area_level_1", "political" ]
            },
            {
               "long_name" : "Turkey",
               "short_name" : "TR",
               "types" : [ "country", "political" ]
            },
            {
               "long_name" : "41060",
               "short_name" : "41060",
               "types" : [ "postal_code" ]
            }
         ],
         "formatted_address" : "Bekirdere, 41060 İzmit/Kocaeli, Turkey",
         "geometry" : {
            "bounds" : {
               "northeast" : {
                  "lat" : 40.7860501,
                  "lng" : 29.960984
               },
               "southwest" : {
                  "lat" : 40.77243800000001,
                  "lng" : 29.9440689
               }
            },
            "location" : {
               "lat" : 40.7810906,
               "lng" : 29.9523716
            },
            "location_type" : "APPROXIMATE",
            "viewport" : {
               "northeast" : {
                  "lat" : 40.7860501,
                  "lng" : 29.960984
               },
               "southwest" : {
                  "lat" : 40.77243800000001,
                  "lng" : 29.9440689
               }
            }
         },
         "place_id" : "ChIJP8ThbcBPyxQR3CjrFq972eo",
         "types" : [ "administrative_area_level_4", "political" ]
      },
      {
         "address_components" : [
            {
               "long_name" : "İzmit",
               "short_name" : "İzmit",
               "types" : [ "locality", "political" ]
            },
            {
               "long_name" : "İzmit",
               "short_name" : "İzmit",
               "types" : [ "administrative_area_level_2", "political" ]
            },
            {
               "long_name" : "Kocaeli",
               "short_name" : "Kocaeli",
               "types" : [ "administrative_area_level_1", "political" ]
            },
            {
               "long_name" : "Turkey",
               "short_name" : "TR",
               "types" : [ "country", "political" ]
            }
         ],
         "formatted_address" : "İzmit, Kocaeli, Turkey",
         "geometry" : {
            "bounds" : {
               "northeast" : {
                  "lat" : 40.805401,
                  "lng" : 30.014834
               },
               "southwest" : {
                  "lat" : 40.736827,
                  "lng" : 29.8541681
               }
            },
            "location" : {
               "lat" : 40.7654408,
               "lng" : 29.9408089
            },
            "location_type" : "APPROXIMATE",
            "viewport" : {
               "northeast" : {
                  "lat" : 40.805401,
                  "lng" : 30.014834
               },
               "southwest" : {
                  "lat" : 40.736827,
                  "lng" : 29.8541681
               }
            }
         },
         "place_id" : "ChIJnftLZGZPyxQRuX5rWOcOaYI",
         "types" : [ "locality", "political" ]
      },
      {
         "address_components" : [
            {
               "long_name" : "İzmit",
               "short_name" : "İzmit",
               "types" : [ "administrative_area_level_2", "political" ]
            },
            {
               "long_name" : "Kocaeli",
               "short_name" : "Kocaeli",
               "types" : [ "administrative_area_level_1", "political" ]
            },
            {
               "long_name" : "Turkey",
               "short_name" : "TR",
               "types" : [ "country", "political" ]
            }
         ],
         "formatted_address" : "İzmit/Kocaeli, Turkey",
         "geometry" : {
            "bounds" : {
               "northeast" : {
                  "lat" : 40.971557,
                  "lng" : 30.2639339
               },
               "southwest" : {
                  "lat" : 40.720553,
                  "lng" : 29.8541681
               }
            },
            "location" : {
               "lat" : 40.8506635,
               "lng" : 30.0202964
            },
            "location_type" : "APPROXIMATE",
            "viewport" : {
               "northeast" : {
                  "lat" : 40.971557,
                  "lng" : 30.2639339
               },
               "southwest" : {
                  "lat" : 40.720553,
                  "lng" : 29.8541681
               }
            }
         },
         "place_id" : "ChIJL2DfPLZQyxQRitx6sY9PIGU",
         "types" : [ "administrative_area_level_2", "political" ]
      },
      {
         "address_components" : [
            {
               "long_name" : "Kocaeli",
               "short_name" : "Kocaeli",
               "types" : [ "administrative_area_level_1", "political" ]
            },
            {
               "long_name" : "Turkey",
               "short_name" : "TR",
               "types" : [ "country", "political" ]
            }
         ],
         "formatted_address" : "Kocaeli, Turkey",
         "geometry" : {
            "bounds" : {
               "northeast" : {
                  "lat" : 41.20976,
                  "lng" : 30.367743
               },
               "southwest" : {
                  "lat" : 40.524151,
                  "lng" : 29.3331261
               }
            },
            "location" : {
               "lat" : 40.8532704,
               "lng" : 29.8815203
            },
            "location_type" : "APPROXIMATE",
            "viewport" : {
               "northeast" : {
                  "lat" : 41.20976,
                  "lng" : 30.367743
               },
               "southwest" : {
                  "lat" : 40.524151,
                  "lng" : 29.3331261
               }
            }
         },
         "place_id" : "ChIJQ8zKb5QgyxQRWdhW642zLKg",
         "types" : [ "administrative_area_level_1", "political" ]
      },
      {
         "address_components" : [
            {
               "long_name" : "Turkey",
               "short_name" : "TR",
               "types" : [ "country", "political" ]
            }
         ],
         "formatted_address" : "Turkey",
         "geometry" : {
            "bounds" : {
               "northeast" : {
                  "lat" : 42.3666999,
                  "lng" : 44.8178449
               },
               "southwest" : {
                  "lat" : 35.808592,
                  "lng" : 25.5377
               }
            },
            "location" : {
               "lat" : 38.963745,
               "lng" : 35.243322
            },
            "location_type" : "APPROXIMATE",
            "viewport" : {
               "northeast" : {
                  "lat" : 42.3666999,
                  "lng" : 44.8178449
               },
               "southwest" : {
                  "lat" : 35.808592,
                  "lng" : 25.5377
               }
            }
         },
         "place_id" : "ChIJcSZPllwVsBQRKl9iKtTb2UA",
         "types" : [ "country", "political" ]
      }
   ],
   "status" : "OK"
}
