{
   "plus_code" : {
      "compound_code" : "23HH+C6 Üsküdar/İstanbul, Turkey",
      "global_code" : "8GHF23HH+C6"
   },
   "results" : [
      {
         "address_components" : [
            {
               "long_name" : "18",
               "short_name" : "18",
               "types" : [ "street_number" ]
            },
            {
               "long_name" : "Dereci Sokak",
               "short_name" : "Dereci Sk.",
               "types" : [ "route" ]
            },
            {
               "long_name" : "Ferah",
               "short_name" : "Ferah",
               "types" : [ "administrative_area_level_4", "political" ]
            },
            {
               "long_name" : "Üsküdar",
               "short_name" : "Üsküdar",
               "types" : [ "administrative_area_level_2", "political" ]
            },
            {
               "long_name" : "İstanbul",
               "short_name" : "İstanbul",
               "types" : [ "administrative_area_level_1", "political" ]
            },
            {
               "long_name" : "Turkey",
               "short_name" : "TR",
               "types" : [ "country", "political" ]
            },
            {
               "long_name" : "34692",
               "short_name" : "34692",
               "types" : [ "postal_code" ]
            }
         ],
         "formatted_address" : "Ferah, Dereci Sk. No:18, 34692 Üsküdar/İstanbul, Turkey",
         "geometry" : {
            "location" : {
               "lat" : 41.0286242,
               "lng" : 29.07815069999999
            },
            "location_type" : "ROOFTOP",
            "viewport" : {
               "northeast" : {
                  "lat" : 41.0299731802915,
                  "lng" : 29.07949968029149
               },
               "southwest" : {
                  "lat" : 41.0272752197085,
                  "lng" : 29.0768017197085
               }
            }
         },
         "place_id" : "ChIJcYHW9UTIyhQRsGMHRwnLGJA",
         "plus_code" : {
            "compound_code" : "23HH+C7 Üsküdar/İstanbul, Turkey",
            "global_code" : "8GHF23HH+C7"
         },
         "types" : [ "street_address" ]
      },
      {
         "address_components" : [
            {
               "long_name" : "No:27",
               "short_name" : "No:27",
               "types" : [ "street_number" ]
            },
            {
               "long_name" : "Şehit Yüksel Batır Sokak",
               "short_name" : "Şht. Yüksel Batır Sk.",
               "types" : [ "route" ]
            },
            {
               "long_name" : "Ferah",
               "short_name" : "Ferah",
               "types" : [ "administrative_area_level_4", "political" ]
            },
            {
               "long_name" : "Üsküdar",
               "short_name" : "Üsküdar",
               "types" : [ "administrative_area_level_2", "political" ]
            },
            {
               "long_name" : "İstanbul",
               "short_name" : "İstanbul",
               "types" : [ "administrative_area_level_1", "political" ]
            },
            {
               "long_name" : "Turkey",
               "short_name" : "TR",
               "types" : [ "country", "political" ]
            },
            {
               "long_name" : "34692",
               "short_name" : "34692",
               "types" : [ "postal_code" ]
            }
         ],
         "formatted_address" : "Ferah, Şht. Yüksel Batır Sk. No:27, 34692 Üsküdar/İstanbul, Turkey",
         "geometry" : {
            "location" : {
               "lat" : 41.0285064,
               "lng" : 29.0780084
            },
            "location_type" : "ROOFTOP",
            "viewport" : {
               "northeast" : {
                  "lat" : 41.0298553802915,
                  "lng" : 29.0793573802915
               },
               "southwest" : {
                  "lat" : 41.0271574197085,
                  "lng" : 29.0766594197085
               }
            }
         },
         "place_id" : "ChIJPz989UTIyhQRN_X_aCcK-iU",
         "plus_code" : {
            "compound_code" : "23HH+C6 Üsküdar/İstanbul, Turkey",
            "global_code" : "8GHF23HH+C6"
         },
         "types" : [ "establishment", "point_of_interest" ]
      },
      {
         "address_components" : [
            {
               "long_name" : "21",
               "short_name" : "21",
               "types" : [ "street_number" ]
            },
            {
               "long_name" : "Dereci Sokak",
               "short_name" : "Dereci Sk.",
               "types" : [ "route" ]
            },
            {
               "long_name" : "Ferah",
               "short_name" : "Ferah",
               "types" : [ "administrative_area_level_4", "political" ]
            },
            {
               "long_name" : "Üsküdar",
               "short_name" : "Üsküdar",
               "types" : [ "administrative_area_level_2", "political" ]
            },
            {
               "long_name" : "İstanbul",
               "short_name" : "İstanbul",
               "types" : [ "administrative_area_level_1", "political" ]
            },
            {
               "long_name" : "Turkey",
               "short_name" : "TR",
               "types" : [ "country", "political" ]
            },
            {
               "long_name" : "34692",
               "short_name" : "34692",
               "types" : [ "postal_code" ]
            }
         ],
         "formatted_address" : "Ferah, Dereci Sk. No:21, 34692 Üsküdar/İstanbul, Turkey",
         "geometry" : {
            "bounds" : {
               "northeast" : {
                  "lat" : 41.028774,
                  "lng" : 29.0778299
               },
               "southwest" : {
                  "lat" : 41.02863,
                  "lng" : 29.0776391
               }
            },
            "location" : {
               "lat" : 41.0286923,
               "lng" : 29.0777425
            },
            "location_type" : "ROOFTOP",
            "viewport" : {
               "northeast" : {
                  "lat" : 41.0300509802915,
                  "lng" : 29.07908348029149
               },
               "southwest" : {
                  "lat" : 41.0273530197085,
                  "lng" : 29.0763855197085
               }
            }
         },
         "place_id" : "ChIJ-_DGXkTIyhQRFhclYSEzyfU",
         "types" : [ "premise" ]
      },
      {
         "address_components" : [
            {
               "long_name" : "23",
               "short_name" : "23",
               "types" : [ "street_number" ]
            },
            {
               "long_name" : "Dereci Sokak",
               "short_name" : "Dereci Sk.",
               "types" : [ "route" ]
            },
            {
               "long_name" : "Ferah",
               "short_name" : "Ferah",
               "types" : [ "administrative_area_level_4", "political" ]
            },
            {
               "long_name" : "Üsküdar",
               "short_name" : "Üsküdar",
               "types" : [ "administrative_area_level_2", "political" ]
            },
            {
               "long_name" : "İstanbul",
               "short_name" : "İstanbul",
               "types" : [ "administrative_area_level_1", "political" ]
            },
            {
               "long_name" : "Turkey",
               "short_name" : "TR",
               "types" : [ "country", "political" ]
            },
            {
               "long_name" : "34692",
               "short_name" : "34692",
               "types" : [ "postal_code" ]
            }
         ],
         "formatted_address" : "Ferah, Dereci Sk. No:23, 34692 Üsküdar/İstanbul, Turkey",
         "geometry" : {
            "location" : {
               "lat" : 41.028629,
               "lng" : 29.0779258
            },
            "location_type" : "RANGE_INTERPOLATED",
            "viewport" : {
               "northeast" : {
                  "lat" : 41.0299779802915,
                  "lng" : 29.0792747802915
               },
               "southwest" : {
                  "lat" : 41.0272800197085,
                  "lng" : 29.0765768197085
               }
            }
         },
         "place_id" : "EjpGZXJhaCwgRGVyZWNpIFNrLiBObzoyMywgMzQ2OTIgw5xza8O8ZGFyL8Swc3RhbmJ1bCwgVHVya2V5IhoSGAoUChIJH3NV9kTIyhQRErcJeU2fCLcQFw",
         "types" : [ "street_address" ]
      },
      {
         "address_components" : [
            {
               "long_name" : "23HH+C6",
               "short_name" : "23HH+C6",
               "types" : [ "plus_code" ]
            },
            {
               "long_name" : "Üsküdar",
               "short_name" : "Üsküdar",
               "types" : [ "administrative_area_level_2", "political" ]
            },
            {
               "long_name" : "İstanbul",
               "short_name" : "İstanbul",
               "types" : [ "administrative_area_level_1", "political" ]
            },
            {
               "long_name" : "Turkey",
               "short_name" : "TR",
               "types" : [ "country", "political" ]
            }
         ],
         "formatted_address" : "23HH+C6 Üsküdar/İstanbul, Turkey",
         "geometry" : {
            "bounds" : {
               "northeast" : {
                  "lat" : 41.028625,
                  "lng" : 29.078125
               },
               "southwest" : {
                  "lat" : 41.0285,
                  "lng" : 29.078
               }
            },
            "location" : {
               "lat" : 41.0286074,
               "lng" : 29.07806399999999
            },
            "location_type" : "ROOFTOP",
            "viewport" : {
               "northeast" : {
                  "lat" : 41.0299114802915,
                  "lng" : 29.0794114802915
               },
               "southwest" : {
                  "lat" : 41.0272135197085,
                  "lng" : 29.0767135197085
               }
            }
         },
         "place_id" : "GhIJOLZDaKmDREARs_6WAPwTPUA",
         "plus_code" : {
            "compound_code" : "23HH+C6 Üsküdar/İstanbul, Turkey",
            "global_code" : "8GHF23HH+C6"
         },
         "types" : [ "plus_code" ]
      },
      {
         "address_components" : [
            {
               "long_name" : "35-23",
               "short_name" : "35-23",
               "types" : [ "street_number" ]
            },
            {
               "long_name" : "Dereci Sokak",
               "short_name" : "Dereci Sk.",
               "types" : [ "route" ]
            },
            {
               "long_name" : "Ferah",
               "short_name" : "Ferah",
               "types" : [ "administrative_area_level_4", "political" ]
            },
            {
               "long_name" : "Üsküdar",
               "short_name" : "Üsküdar",
               "types" : [ "administrative_area_level_2", "political" ]
            },
            {
               "long_name" : "İstanbul",
               "short_name" : "İstanbul",
               "types" : [ "administrative_area_level_1", "political" ]
            },
            {
               "long_name" : "Turkey",
               "short_name" : "TR",
               "types" : [ "country", "political" ]
            },
            {
               "long_name" : "34692",
               "short_name" : "34692",
               "types" : [ "postal_code" ]
            }
         ],
         "formatted_address" : "Ferah, Dereci Sk. 35-23, 34692 Üsküdar/İstanbul, Turkey",
         "geometry" : {
            "bounds" : {
               "northeast" : {
                  "lat" : 41.028898,
                  "lng" : 29.0784323
               },
               "southwest" : {
                  "lat" : 41.0286017,
                  "lng" : 29.0778912
               }
            },
            "location" : {
               "lat" : 41.0287628,
               "lng" : 29.0781482
            },
            "location_type" : "GEOMETRIC_CENTER",
            "viewport" : {
               "northeast" : {
                  "lat" : 41.0300988302915,
                  "lng" : 29.0795107302915
               },
               "southwest" : {
                  "lat" : 41.0274008697085,
                  "lng" : 29.0768127697085
               }
            }
         },
         "place_id" : "ChIJH3NV9kTIyhQRErcJeU2fCLc",
         "types" : [ "route" ]
      },
      {
         "address_components" : [
            {
               "long_name" : "Kısıklı",
               "short_name" : "Kısıklı",
               "types" : [ "administrative_area_level_4", "political" ]
            },
            {
               "long_name" : "Üsküdar",
               "short_name" : "Üsküdar",
               "types" : [ "administrative_area_level_2", "political" ]
            },
            {
               "long_name" : "İstanbul",
               "short_name" : "İstanbul",
               "types" : [ "administrative_area_level_1", "political" ]
            },
            {
               "long_name" : "Turkey",
               "short_name" : "TR",
               "types" : [ "country", "political" ]
            },
            {
               "long_name" : "34692",
               "short_name" : "34692",
               "types" : [ "postal_code" ]
            }
         ],
         "formatted_address" : "Kısıklı, 34692 Üsküdar/İstanbul, Turkey",
         "geometry" : {
            "bounds" : {
               "northeast" : {
                  "lat" : 41.029806,
                  "lng" : 29.084584
               },
               "southwest" : {
                  "lat" : 41.0196929,
                  "lng" : 29.0597661
               }
            },
            "location" : {
               "lat" : 41.0257598,
               "lng" : 29.0707204
            },
            "location_type" : "APPROXIMATE",
            "viewport" : {
               "northeast" : {
                  "lat" : 41.029806,
                  "lng" : 29.084584
               },
               "southwest" : {
                  "lat" : 41.0196929,
                  "lng" : 29.0597661
               }
            }
         },
         "place_id" : "ChIJ88ZoKwW3yhQR2GUaPjS2vRw",
         "types" : [ "administrative_area_level_4", "political" ]
      },
      {
         "address_components" : [
            {
               "long_name" : "34692",
               "short_name" : "34692",
               "types" : [ "postal_code" ]
            },
            {
               "long_name" : "Üsküdar",
               "short_name" : "Üsküdar",
               "types" : [ "administrative_area_level_2", "political" ]
            },
            {
               "long_name" : "İstanbul",
               "short_name" : "İstanbul",
               "types" : [ "administrative_area_level_1", "political" ]
            },
            {
               "long_name" : "Turkey",
               "short_name" : "TR",
               "types" : [ "country", "political" ]
            }
         ],
         "formatted_address" : "34692 Üsküdar/İstanbul, Turkey",
         "geometry" : {
            "bounds" : {
               "northeast" : {
                  "lat" : 41.0395091,
                  "lng" : 29.084584
               },
               "southwest" : {
                  "lat" : 41.0196929,
                  "lng" : 29.0597661
               }
            },
            "location" : {
               "lat" : 41.0265171,
               "lng" : 29.0721748
            },
            "location_type" : "APPROXIMATE",
            "viewport" : {
               "northeast" : {
                  "lat" : 41.0395091,
                  "lng" : 29.084584
               },
               "southwest" : {
                  "lat" : 41.0196929,
                  "lng" : 29.0597661
               }
            }
         },
         "place_id" : "ChIJYzQiegXIyhQRtohQxtB_2nc",
         "types" : [ "postal_code" ]
      },
      {
         "address_components" : [
            {
               "long_name" : "Üsküdar",
               "short_name" : "Üsküdar",
               "types" : [ "administrative_area_level_2", "political" ]
            },
            {
               "long_name" : "İstanbul",
               "short_name" : "İstanbul",
               "types" : [ "administrative_area_level_1", "political" ]
            },
            {
               "long_name" : "Turkey",
               "short_name" : "TR",
               "types" : [ "country", "political" ]
            }
         ],
         "formatted_address" : "Üsküdar/İstanbul, Turkey",
         "geometry" : {
            "bounds" : {
               "northeast" : {
                  "lat" : 41.077997,
                  "lng" : 29.091789
               },
               "southwest" : {
                  "lat" : 40.9925,
                  "lng" : 29.00367
               }
            },
            "location" : {
               "lat" : 41.0189417,
               "lng" : 29.0576298
            },
            "location_type" : "APPROXIMATE",
            "viewport" : {
               "northeast" : {
                  "lat" : 41.077997,
                  "lng" : 29.091789
               },
               "southwest" : {
                  "lat" : 40.9925,
                  "lng" : 29.00367
               }
            }
         },
         "place_id" : "ChIJ8ckk1SbIyhQROH97MxJ2T8E",
         "types" : [ "administrative_area_level_2", "political" ]
      },
      {
         "address_components" : [
            {
               "long_name" : "Anatolian Side",
               "short_name" : "Anatolian Side",
               "types" : [ "neighborhood", "political" ]
            },
            {
               "long_name" : "İstanbul",
               "short_name" : "İstanbul",
               "types" : [ "administrative_area_level_1", "political" ]
            },
            {
               "long_name" : "Turkey",
               "short_name" : "TR",
               "types" : [ "country", "political" ]
            }
         ],
         "formatted_address" : "Anatolian Side, İstanbul, Turkey",
         "geometry" : {
            "bounds" : {
               "northeast" : {
                  "lat" : 41.173419,
                  "lng" : 29.4288049
               },
               "southwest" : {
                  "lat" : 40.811404,
                  "lng" : 29.006362
               }
            },
            "location" : {
               "lat" : 40.9815089,
               "lng" : 29.0947502
            },
            "location_type" : "APPROXIMATE",
            "viewport" : {
               "northeast" : {
                  "lat" : 41.173419,
                  "lng" : 29.4288049
               },
               "southwest" : {
                  "lat" : 40.811404,
                  "lng" : 29.006362
               }
            }
         },
         "place_id" : "ChIJ24figCrGyhQR6m5IK44mNVI",
         "types" : [ "neighborhood", "political" ]
      },
      {
         "address_components" : [
            {
               "long_name" : "İstanbul",
               "short_name" : "İstanbul",
               "types" : [ "locality", "political" ]
            },
            {
               "long_name" : "İstanbul",
               "short_name" : "İstanbul",
               "types" : [ "administrative_area_level_1", "political" ]
            },
            {
               "long_name" : "Turkey",
               "short_name" : "TR",
               "types" : [ "country", "political" ]
            }
         ],
         "formatted_address" : "İstanbul, Turkey",
         "geometry" : {
            "bounds" : {
               "northeast" : {
                  "lat" : 41.199239,
                  "lng" : 29.4288049
               },
               "southwest" : {
                  "lat" : 40.811404,
                  "lng" : 28.595554
               }
            },
            "location" : {
               "lat" : 41.0082376,
               "lng" : 28.9783589
            },
            "location_type" : "APPROXIMATE",
            "viewport" : {
               "northeast" : {
                  "lat" : 41.199239,
                  "lng" : 29.4288049
               },
               "southwest" : {
                  "lat" : 40.811404,
                  "lng" : 28.595554
               }
            }
         },
         "place_id" : "ChIJawhoAASnyhQR0LABvJj-zOE",
         "types" : [ "locality", "political" ]
      },
      {
         "address_components" : [
            {
               "long_name" : "İstanbul",
               "short_name" : "İstanbul",
               "types" : [ "administrative_area_level_1", "political" ]
            },
            {
               "long_name" : "Turkey",
               "short_name" : "TR",
               "types" : [ "country", "political" ]
            }
         ],
         "formatted_address" : "İstanbul, Turkey",
         "geometry" : {
            "bounds" : {
               "northeast" : {
                  "lat" : 41.58461,
                  "lng" : 29.915705
               },
               "southwest" : {
                  "lat" : 40.8026889,
                  "lng" : 27.971373
               }
            },
            "location" : {
               "lat" : 41.1634302,
               "lng" : 28.7664408
            },
            "location_type" : "APPROXIMATE",
            "viewport" : {
               "northeast" : {
                  "lat" : 41.58461,
                  "lng" : 29.915705
               },
               "southwest" : {
                  "lat" : 40.8026889,
                  "lng" : 27.971373
               }
            }
         },
         "place_id" : "ChIJexVgWlG2yhQR6B1akfSarCI",
         "types" : [ "administrative_area_level_1", "political" ]
      },
      {
         "address_components" : [
            {
               "long_name" : "Turkey",
               "short_name" : "TR",
               "types" : [ "country", "political" ]
            }
         ],
         "formatted_address" : "Turkey",
         "geometry" : {
            "bounds" : {
               "northeast" : {
                  "lat" : 42.3666999,
                  "lng" : 44.8178449
               },
               "southwest" : {
                  "lat" : 35.808592,
                  "lng" : 25.5377
               }
            },
            "location" : {
               "lat" : 38.963745,
               "lng" : 35.243322
            },
            "location_type" : "APPROXIMATE",
            "viewport" : {
               "northeast" : {
                  "lat" : 42.3666999,
                  "lng" : 44.8178449
               },
               "southwest" : {
                  "lat" : 35.808592,
                  "lng" : 25.5377
               }
            }
         },
         "place_id" : "ChIJcSZPllwVsBQRKl9iKtTb2UA",
         "types" : [ "country", "political" ]
      }
   ],
   "status" : "OK"
}
