{
   "plus_code" : {
      "compound_code" : "QRRG+Q3 Derince/Kocaeli, Turkey",
      "global_code" : "8GGFQRRG+Q3"
   },
   "results" : [
      {
         "address_components" : [
            {
               "long_name" : "QRRG+Q3",
               "short_name" : "QRRG+Q3",
               "types" : [ "plus_code" ]
            },
            {
               "long_name" : "Derince",
               "short_name" : "Derince",
               "types" : [ "administrative_area_level_2", "political" ]
            },
            {
               "long_name" : "Kocaeli",
               "short_name" : "Kocaeli",
               "types" : [ "administrative_area_level_1", "political" ]
            },
            {
               "long_name" : "Turkey",
               "short_name" : "TR",
               "types" : [ "country", "political" ]
            }
         ],
         "formatted_address" : "QRRG+Q3 Derince/Kocaeli, Turkey",
         "geometry" : {
            "bounds" : {
               "northeast" : {
                  "lat" : 40.792,
                  "lng" : 29.82525
               },
               "southwest" : {
                  "lat" : 40.791875,
                  "lng" : 29.825125
               }
            },
            "location" : {
               "lat" : 40.7919791,
               "lng" : 29.8251343
            },
            "location_type" : "ROOFTOP",
            "viewport" : {
               "northeast" : {
                  "lat" : 40.7932864802915,
                  "lng" : 29.8265364802915
               },
               "southwest" : {
                  "lat" : 40.7905885197085,
                  "lng" : 29.8238385197085
               }
            }
         },
         "place_id" : "GhIJyc42kl9lREARz05hADzTPUA",
         "plus_code" : {
            "compound_code" : "QRRG+Q3 Derince/Kocaeli, Turkey",
            "global_code" : "8GGFQRRG+Q3"
         },
         "types" : [ "plus_code" ]
      },
      {
         "address_components" : [
            {
               "long_name" : "61-49",
               "short_name" : "61-49",
               "types" : [ "street_number" ]
            },
            {
               "long_name" : "Akıncılar Sokak",
               "short_name" : "Akıncılar Sk.",
               "types" : [ "route" ]
            },
            {
               "long_name" : "Fatih Sultan",
               "short_name" : "Fatih Sultan",
               "types" : [ "administrative_area_level_4", "political" ]
            },
            {
               "long_name" : "Derince",
               "short_name" : "Derince",
               "types" : [ "administrative_area_level_2", "political" ]
            },
            {
               "long_name" : "Kocaeli",
               "short_name" : "Kocaeli",
               "types" : [ "administrative_area_level_1", "political" ]
            },
            {
               "long_name" : "Turkey",
               "short_name" : "TR",
               "types" : [ "country", "political" ]
            },
            {
               "long_name" : "41900",
               "short_name" : "41900",
               "types" : [ "postal_code" ]
            }
         ],
         "formatted_address" : "Fatih Sultan, Akıncılar Sk. 61-49, 41900 Derince/Kocaeli, Turkey",
         "geometry" : {
            "bounds" : {
               "northeast" : {
                  "lat" : 40.7956228,
                  "lng" : 29.8245772
               },
               "southwest" : {
                  "lat" : 40.7882076,
                  "lng" : 29.8228149
               }
            },
            "location" : {
               "lat" : 40.7918445,
               "lng" : 29.8241028
            },
            "location_type" : "GEOMETRIC_CENTER",
            "viewport" : {
               "northeast" : {
                  "lat" : 40.7956228,
                  "lng" : 29.8250450302915
               },
               "southwest" : {
                  "lat" : 40.7882076,
                  "lng" : 29.8223470697085
               }
            }
         },
         "place_id" : "ChIJUxEmi9pHyxQRsutqAKuDN10",
         "types" : [ "route" ]
      },
      {
         "address_components" : [
            {
               "long_name" : "61",
               "short_name" : "61",
               "types" : [ "street_number" ]
            },
            {
               "long_name" : "Akıncılar Sokak",
               "short_name" : "Akıncılar Sk.",
               "types" : [ "route" ]
            },
            {
               "long_name" : "Fatih Sultan",
               "short_name" : "Fatih Sultan",
               "types" : [ "administrative_area_level_4", "political" ]
            },
            {
               "long_name" : "Derince",
               "short_name" : "Derince",
               "types" : [ "administrative_area_level_2", "political" ]
            },
            {
               "long_name" : "Kocaeli",
               "short_name" : "Kocaeli",
               "types" : [ "administrative_area_level_1", "political" ]
            },
            {
               "long_name" : "Turkey",
               "short_name" : "TR",
               "types" : [ "country", "political" ]
            },
            {
               "long_name" : "41900",
               "short_name" : "41900",
               "types" : [ "postal_code" ]
            }
         ],
         "formatted_address" : "Fatih Sultan, Akıncılar Sk. No:61, 41900 Derince/Kocaeli, Turkey",
         "geometry" : {
            "location" : {
               "lat" : 40.7888127,
               "lng" : 29.8230806
            },
            "location_type" : "RANGE_INTERPOLATED",
            "viewport" : {
               "northeast" : {
                  "lat" : 40.7901616802915,
                  "lng" : 29.8244295802915
               },
               "southwest" : {
                  "lat" : 40.78746371970851,
                  "lng" : 29.8217316197085
               }
            }
         },
         "place_id" : "EkJGYXRpaCBTdWx0YW4sIEFrxLFuY8SxbGFyIFNrLiBObzo2MSwgNDE5MDAgRGVyaW5jZS9Lb2NhZWxpLCBUdXJrZXkiGhIYChQKEglTESaL2kfLFBGy62oAq4M3XRA9",
         "types" : [ "street_address" ]
      },
      {
         "address_components" : [
            {
               "long_name" : "Toylar",
               "short_name" : "Toylar",
               "types" : [ "administrative_area_level_4", "political" ]
            },
            {
               "long_name" : "Derince",
               "short_name" : "Derince",
               "types" : [ "administrative_area_level_2", "political" ]
            },
            {
               "long_name" : "Kocaeli",
               "short_name" : "Kocaeli",
               "types" : [ "administrative_area_level_1", "political" ]
            },
            {
               "long_name" : "Turkey",
               "short_name" : "TR",
               "types" : [ "country", "political" ]
            },
            {
               "long_name" : "41900",
               "short_name" : "41900",
               "types" : [ "postal_code" ]
            }
         ],
         "formatted_address" : "Toylar, 41900 Derince/Kocaeli, Turkey",
         "geometry" : {
            "bounds" : {
               "northeast" : {
                  "lat" : 40.860828,
                  "lng" : 29.913161
               },
               "southwest" : {
                  "lat" : 40.77243,
                  "lng" : 29.8019411
               }
            },
            "location" : {
               "lat" : 40.8168978,
               "lng" : 29.8468043
            },
            "location_type" : "APPROXIMATE",
            "viewport" : {
               "northeast" : {
                  "lat" : 40.860828,
                  "lng" : 29.913161
               },
               "southwest" : {
                  "lat" : 40.77243,
                  "lng" : 29.8019411
               }
            }
         },
         "place_id" : "ChIJjVRNmnFJyxQRhqcbJT9jgGo",
         "types" : [ "administrative_area_level_4", "political" ]
      },
      {
         "address_components" : [
            {
               "long_name" : "41900",
               "short_name" : "41900",
               "types" : [ "postal_code" ]
            },
            {
               "long_name" : "Toylar",
               "short_name" : "Toylar",
               "types" : [ "administrative_area_level_4", "political" ]
            },
            {
               "long_name" : "Derince",
               "short_name" : "Derince",
               "types" : [ "administrative_area_level_2", "political" ]
            },
            {
               "long_name" : "Kocaeli",
               "short_name" : "Kocaeli",
               "types" : [ "administrative_area_level_1", "political" ]
            },
            {
               "long_name" : "Turkey",
               "short_name" : "TR",
               "types" : [ "country", "political" ]
            }
         ],
         "formatted_address" : "Toylar, 41900 Derince/Kocaeli, Turkey",
         "geometry" : {
            "bounds" : {
               "northeast" : {
                  "lat" : 40.860828,
                  "lng" : 29.913161
               },
               "southwest" : {
                  "lat" : 40.77243,
                  "lng" : 29.8019411
               }
            },
            "location" : {
               "lat" : 40.8168978,
               "lng" : 29.8468043
            },
            "location_type" : "APPROXIMATE",
            "viewport" : {
               "northeast" : {
                  "lat" : 40.860828,
                  "lng" : 29.913161
               },
               "southwest" : {
                  "lat" : 40.77243,
                  "lng" : 29.8019411
               }
            }
         },
         "place_id" : "ChIJpdRccOdIyxQRQGGnQo5KtJw",
         "types" : [ "postal_code" ]
      },
      {
         "address_components" : [
            {
               "long_name" : "Derince",
               "short_name" : "Derince",
               "types" : [ "administrative_area_level_2", "political" ]
            },
            {
               "long_name" : "Kocaeli",
               "short_name" : "Kocaeli",
               "types" : [ "administrative_area_level_1", "political" ]
            },
            {
               "long_name" : "Turkey",
               "short_name" : "TR",
               "types" : [ "country", "political" ]
            }
         ],
         "formatted_address" : "Derince/Kocaeli, Turkey",
         "geometry" : {
            "bounds" : {
               "northeast" : {
                  "lat" : 41.020148,
                  "lng" : 29.9408809
               },
               "southwest" : {
                  "lat" : 40.7433789,
                  "lng" : 29.7896059
               }
            },
            "location" : {
               "lat" : 40.8651717,
               "lng" : 29.9046594
            },
            "location_type" : "APPROXIMATE",
            "viewport" : {
               "northeast" : {
                  "lat" : 41.020148,
                  "lng" : 29.9408809
               },
               "southwest" : {
                  "lat" : 40.7433789,
                  "lng" : 29.7896059
               }
            }
         },
         "place_id" : "ChIJEQyDfJZLyxQRlUruAGfzeKE",
         "types" : [ "administrative_area_level_2", "political" ]
      },
      {
         "address_components" : [
            {
               "long_name" : "Kocaeli",
               "short_name" : "Kocaeli",
               "types" : [ "administrative_area_level_1", "political" ]
            },
            {
               "long_name" : "Turkey",
               "short_name" : "TR",
               "types" : [ "country", "political" ]
            }
         ],
         "formatted_address" : "Kocaeli, Turkey",
         "geometry" : {
            "bounds" : {
               "northeast" : {
                  "lat" : 41.20976,
                  "lng" : 30.367743
               },
               "southwest" : {
                  "lat" : 40.524151,
                  "lng" : 29.3331261
               }
            },
            "location" : {
               "lat" : 40.8532704,
               "lng" : 29.8815203
            },
            "location_type" : "APPROXIMATE",
            "viewport" : {
               "northeast" : {
                  "lat" : 41.20976,
                  "lng" : 30.367743
               },
               "southwest" : {
                  "lat" : 40.524151,
                  "lng" : 29.3331261
               }
            }
         },
         "place_id" : "ChIJQ8zKb5QgyxQRWdhW642zLKg",
         "types" : [ "administrative_area_level_1", "political" ]
      },
      {
         "address_components" : [
            {
               "long_name" : "Turkey",
               "short_name" : "TR",
               "types" : [ "country", "political" ]
            }
         ],
         "formatted_address" : "Turkey",
         "geometry" : {
            "bounds" : {
               "northeast" : {
                  "lat" : 42.3666999,
                  "lng" : 44.8178449
               },
               "southwest" : {
                  "lat" : 35.808592,
                  "lng" : 25.5377
               }
            },
            "location" : {
               "lat" : 38.963745,
               "lng" : 35.243322
            },
            "location_type" : "APPROXIMATE",
            "viewport" : {
               "northeast" : {
                  "lat" : 42.3666999,
                  "lng" : 44.8178449
               },
               "southwest" : {
                  "lat" : 35.808592,
                  "lng" : 25.5377
               }
            }
         },
         "place_id" : "ChIJcSZPllwVsBQRKl9iKtTb2UA",
         "types" : [ "country", "political" ]
      }
   ],
   "status" : "OK"
}
