{
   "results" : [
      {
         "address_components" : [
            {
               "long_name" : "58J6+RR",
               "short_name" : "58J6+RR",
               "types" : [ "plus_code" ]
            },
            {
               "long_name" : "Torbalı",
               "short_name" : "Torbalı",
               "types" : [ "administrative_area_level_2", "political" ]
            },
            {
               "long_name" : "İzmir",
               "short_name" : "İzmir",
               "types" : [ "administrative_area_level_1", "political" ]
            },
            {
               "long_name" : "Turkey",
               "short_name" : "TR",
               "types" : [ "country", "political" ]
            }
         ],
         "formatted_address" : "58J6+RR Torbalı/İzmir, Turkey",
         "geometry" : {
            "bounds" : {
               "northeast" : {
                  "lat" : 38.182125,
                  "lng" : 27.312125
               },
               "southwest" : {
                  "lat" : 38.182,
                  "lng" : 27.312
               }
            },
            "location" : {
               "lat" : 38.18206250000001,
               "lng" : 27.3120625
            },
            "location_type" : "GEOMETRIC_CENTER",
            "viewport" : {
               "northeast" : {
                  "lat" : 38.18341148029149,
                  "lng" : 27.3134114802915
               },
               "southwest" : {
                  "lat" : 38.18071351970849,
                  "lng" : 27.3107135197085
               }
            }
         },
         "place_id" : "GhIJ_anx0k0XQ0AR2c73U-NPO0A",
         "plus_code" : {
            "compound_code" : "58J6+RR Torbalı/İzmir, Turkey",
            "global_code" : "8GC958J6+RR"
         },
         "types" : [ "plus_code" ]
      }
   ],
   "status" : "OK"
}
