{
   "plus_code" : {
      "compound_code" : "WPJ2+FJ Gebze/Kocaeli, Turkey",
      "global_code" : "8GGFWPJ2+FJ"
   },
   "results" : [
      {
         "address_components" : [
            {
               "long_name" : "WPJ2+FJ",
               "short_name" : "WPJ2+FJ",
               "types" : [ "plus_code" ]
            },
            {
               "long_name" : "Gebze",
               "short_name" : "Gebze",
               "types" : [ "administrative_area_level_2", "political" ]
            },
            {
               "long_name" : "Kocaeli",
               "short_name" : "Kocaeli",
               "types" : [ "administrative_area_level_1", "political" ]
            },
            {
               "long_name" : "Turkey",
               "short_name" : "TR",
               "types" : [ "country", "political" ]
            }
         ],
         "formatted_address" : "WPJ2+FJ Gebze/Kocaeli, Turkey",
         "geometry" : {
            "bounds" : {
               "northeast" : {
                  "lat" : 40.93125,
                  "lng" : 29.701625
               },
               "southwest" : {
                  "lat" : 40.931125,
                  "lng" : 29.7015
               }
            },
            "location" : {
               "lat" : 40.9311527,
               "lng" : 29.7015381
            },
            "location_type" : "GEOMETRIC_CENTER",
            "viewport" : {
               "northeast" : {
                  "lat" : 40.9325364802915,
                  "lng" : 29.7029114802915
               },
               "southwest" : {
                  "lat" : 40.9298385197085,
                  "lng" : 29.7002135197085
               }
            }
         },
         "place_id" : "GhIJggr9AjB3REAR4WU8AJizPUA",
         "plus_code" : {
            "compound_code" : "WPJ2+FJ Gebze/Kocaeli, Turkey",
            "global_code" : "8GGFWPJ2+FJ"
         },
         "types" : [ "plus_code" ]
      },
      {
         "address_components" : [
            {
               "long_name" : "Unnamed Road",
               "short_name" : "Unnamed Road",
               "types" : [ "route" ]
            },
            {
               "long_name" : "Kargalı",
               "short_name" : "Kargalı",
               "types" : [ "administrative_area_level_4", "political" ]
            },
            {
               "long_name" : "Gebze",
               "short_name" : "Gebze",
               "types" : [ "administrative_area_level_2", "political" ]
            },
            {
               "long_name" : "Kocaeli",
               "short_name" : "Kocaeli",
               "types" : [ "administrative_area_level_1", "political" ]
            },
            {
               "long_name" : "Turkey",
               "short_name" : "TR",
               "types" : [ "country", "political" ]
            },
            {
               "long_name" : "41400",
               "short_name" : "41400",
               "types" : [ "postal_code" ]
            }
         ],
         "formatted_address" : "Kargalı, Unnamed Road, 41400 Gebze/Kocaeli, Turkey",
         "geometry" : {
            "bounds" : {
               "northeast" : {
                  "lat" : 40.9363325,
                  "lng" : 29.6911506
               },
               "southwest" : {
                  "lat" : 40.9350766,
                  "lng" : 29.6907527
               }
            },
            "location" : {
               "lat" : 40.935618,
               "lng" : 29.6907619
            },
            "location_type" : "GEOMETRIC_CENTER",
            "viewport" : {
               "northeast" : {
                  "lat" : 40.93705353029149,
                  "lng" : 29.6923006302915
               },
               "southwest" : {
                  "lat" : 40.9343555697085,
                  "lng" : 29.68960266970851
               }
            }
         },
         "place_id" : "ChIJO-IzCYYzyxQReuG1O4HsyKE",
         "types" : [ "route" ]
      },
      {
         "address_components" : [
            {
               "long_name" : "Elbizli",
               "short_name" : "Elbizli",
               "types" : [ "administrative_area_level_4", "political" ]
            },
            {
               "long_name" : "Gebze",
               "short_name" : "Gebze",
               "types" : [ "administrative_area_level_2", "political" ]
            },
            {
               "long_name" : "Kocaeli",
               "short_name" : "Kocaeli",
               "types" : [ "administrative_area_level_1", "political" ]
            },
            {
               "long_name" : "Turkey",
               "short_name" : "TR",
               "types" : [ "country", "political" ]
            },
            {
               "long_name" : "41400",
               "short_name" : "41400",
               "types" : [ "postal_code" ]
            }
         ],
         "formatted_address" : "Elbizli, 41400 Gebze/Kocaeli, Turkey",
         "geometry" : {
            "bounds" : {
               "northeast" : {
                  "lat" : 40.951419,
                  "lng" : 29.7431401
               },
               "southwest" : {
                  "lat" : 40.907595,
                  "lng" : 29.692328
               }
            },
            "location" : {
               "lat" : 40.9331896,
               "lng" : 29.7136456
            },
            "location_type" : "APPROXIMATE",
            "viewport" : {
               "northeast" : {
                  "lat" : 40.951419,
                  "lng" : 29.7431401
               },
               "southwest" : {
                  "lat" : 40.907595,
                  "lng" : 29.692328
               }
            }
         },
         "place_id" : "ChIJNdp7t_E0yxQR1nFS-E3bqDM",
         "types" : [ "administrative_area_level_4", "political" ]
      },
      {
         "address_components" : [
            {
               "long_name" : "41400",
               "short_name" : "41400",
               "types" : [ "postal_code" ]
            },
            {
               "long_name" : "Elbizli",
               "short_name" : "Elbizli",
               "types" : [ "administrative_area_level_4", "political" ]
            },
            {
               "long_name" : "Gebze",
               "short_name" : "Gebze",
               "types" : [ "administrative_area_level_2", "political" ]
            },
            {
               "long_name" : "Kocaeli",
               "short_name" : "Kocaeli",
               "types" : [ "administrative_area_level_1", "political" ]
            },
            {
               "long_name" : "Turkey",
               "short_name" : "TR",
               "types" : [ "country", "political" ]
            }
         ],
         "formatted_address" : "Elbizli, 41400 Gebze/Kocaeli, Turkey",
         "geometry" : {
            "bounds" : {
               "northeast" : {
                  "lat" : 40.951419,
                  "lng" : 29.7431401
               },
               "southwest" : {
                  "lat" : 40.907595,
                  "lng" : 29.692328
               }
            },
            "location" : {
               "lat" : 40.9331896,
               "lng" : 29.7136456
            },
            "location_type" : "APPROXIMATE",
            "viewport" : {
               "northeast" : {
                  "lat" : 40.951419,
                  "lng" : 29.7431401
               },
               "southwest" : {
                  "lat" : 40.907595,
                  "lng" : 29.692328
               }
            }
         },
         "place_id" : "ChIJGzRroWc0yxQRaj0BdRfSkP0",
         "types" : [ "postal_code" ]
      },
      {
         "address_components" : [
            {
               "long_name" : "Gebze",
               "short_name" : "Gebze",
               "types" : [ "administrative_area_level_2", "political" ]
            },
            {
               "long_name" : "Kocaeli",
               "short_name" : "Kocaeli",
               "types" : [ "administrative_area_level_1", "political" ]
            },
            {
               "long_name" : "Turkey",
               "short_name" : "TR",
               "types" : [ "country", "political" ]
            }
         ],
         "formatted_address" : "Gebze/Kocaeli, Turkey",
         "geometry" : {
            "bounds" : {
               "northeast" : {
                  "lat" : 41.0444389,
                  "lng" : 29.753319
               },
               "southwest" : {
                  "lat" : 40.76473499999999,
                  "lng" : 29.339897
               }
            },
            "location" : {
               "lat" : 40.9329106,
               "lng" : 29.5339711
            },
            "location_type" : "APPROXIMATE",
            "viewport" : {
               "northeast" : {
                  "lat" : 41.0444389,
                  "lng" : 29.753319
               },
               "southwest" : {
                  "lat" : 40.76473499999999,
                  "lng" : 29.339897
               }
            }
         },
         "place_id" : "ChIJvZNPnBEvyxQRqVaYkWB4_nI",
         "types" : [ "administrative_area_level_2", "political" ]
      },
      {
         "address_components" : [
            {
               "long_name" : "Kocaeli",
               "short_name" : "Kocaeli",
               "types" : [ "administrative_area_level_1", "political" ]
            },
            {
               "long_name" : "Turkey",
               "short_name" : "TR",
               "types" : [ "country", "political" ]
            }
         ],
         "formatted_address" : "Kocaeli, Turkey",
         "geometry" : {
            "bounds" : {
               "northeast" : {
                  "lat" : 41.20976,
                  "lng" : 30.367743
               },
               "southwest" : {
                  "lat" : 40.524151,
                  "lng" : 29.3331261
               }
            },
            "location" : {
               "lat" : 40.8532704,
               "lng" : 29.8815203
            },
            "location_type" : "APPROXIMATE",
            "viewport" : {
               "northeast" : {
                  "lat" : 41.20976,
                  "lng" : 30.367743
               },
               "southwest" : {
                  "lat" : 40.524151,
                  "lng" : 29.3331261
               }
            }
         },
         "place_id" : "ChIJQ8zKb5QgyxQRWdhW642zLKg",
         "types" : [ "administrative_area_level_1", "political" ]
      },
      {
         "address_components" : [
            {
               "long_name" : "Turkey",
               "short_name" : "TR",
               "types" : [ "country", "political" ]
            }
         ],
         "formatted_address" : "Turkey",
         "geometry" : {
            "bounds" : {
               "northeast" : {
                  "lat" : 42.3666999,
                  "lng" : 44.8178449
               },
               "southwest" : {
                  "lat" : 35.808592,
                  "lng" : 25.5377
               }
            },
            "location" : {
               "lat" : 38.963745,
               "lng" : 35.243322
            },
            "location_type" : "APPROXIMATE",
            "viewport" : {
               "northeast" : {
                  "lat" : 42.3666999,
                  "lng" : 44.8178449
               },
               "southwest" : {
                  "lat" : 35.808592,
                  "lng" : 25.5377
               }
            }
         },
         "place_id" : "ChIJcSZPllwVsBQRKl9iKtTb2UA",
         "types" : [ "country", "political" ]
      }
   ],
   "status" : "OK"
}
