{
   "plus_code" : {
      "compound_code" : "QXJ9+Q3 İzmit/Kocaeli, Turkey",
      "global_code" : "8GGFQXJ9+Q3"
   },
   "results" : [
      {
         "address_components" : [
            {
               "long_name" : "262",
               "short_name" : "262",
               "types" : [ "street_number" ]
            },
            {
               "long_name" : "Tavşantepe Caddesi",
               "short_name" : "Tavşantepe Cd.",
               "types" : [ "route" ]
            },
            {
               "long_name" : "Tavşantepe",
               "short_name" : "Tavşantepe",
               "types" : [ "administrative_area_level_4", "political" ]
            },
            {
               "long_name" : "İzmit",
               "short_name" : "İzmit",
               "types" : [ "administrative_area_level_2", "political" ]
            },
            {
               "long_name" : "Kocaeli",
               "short_name" : "Kocaeli",
               "types" : [ "administrative_area_level_1", "political" ]
            },
            {
               "long_name" : "Turkey",
               "short_name" : "TR",
               "types" : [ "country", "political" ]
            },
            {
               "long_name" : "41060",
               "short_name" : "41060",
               "types" : [ "postal_code" ]
            }
         ],
         "formatted_address" : "Tavşantepe, Tavşantepe Cd. No:262, 41060 İzmit/Kocaeli, Turkey",
         "geometry" : {
            "location" : {
               "lat" : 40.781985,
               "lng" : 29.9678094
            },
            "location_type" : "ROOFTOP",
            "viewport" : {
               "northeast" : {
                  "lat" : 40.7833339802915,
                  "lng" : 29.9691583802915
               },
               "southwest" : {
                  "lat" : 40.7806360197085,
                  "lng" : 29.9664604197085
               }
            }
         },
         "place_id" : "ChIJcbAwG9pPyxQR5KEveb4-w0k",
         "plus_code" : {
            "compound_code" : "QXJ9+Q4 İzmit/Kocaeli, Turkey",
            "global_code" : "8GGFQXJ9+Q4"
         },
         "types" : [ "street_address" ]
      },
      {
         "address_components" : [
            {
               "long_name" : "74",
               "short_name" : "74",
               "types" : [ "street_number" ]
            },
            {
               "long_name" : "Kumlu Sokak",
               "short_name" : "Kumlu Sk.",
               "types" : [ "route" ]
            },
            {
               "long_name" : "Tavşantepe",
               "short_name" : "Tavşantepe",
               "types" : [ "administrative_area_level_4", "political" ]
            },
            {
               "long_name" : "İzmit",
               "short_name" : "İzmit",
               "types" : [ "administrative_area_level_2", "political" ]
            },
            {
               "long_name" : "Kocaeli",
               "short_name" : "Kocaeli",
               "types" : [ "administrative_area_level_1", "political" ]
            },
            {
               "long_name" : "Turkey",
               "short_name" : "TR",
               "types" : [ "country", "political" ]
            },
            {
               "long_name" : "41060",
               "short_name" : "41060",
               "types" : [ "postal_code" ]
            }
         ],
         "formatted_address" : "Tavşantepe, Kumlu Sk. No:74, 41060 İzmit/Kocaeli, Turkey",
         "geometry" : {
            "bounds" : {
               "northeast" : {
                  "lat" : 40.7817608,
                  "lng" : 29.9671426
               },
               "southwest" : {
                  "lat" : 40.7816428,
                  "lng" : 29.9669558
               }
            },
            "location" : {
               "lat" : 40.7816992,
               "lng" : 29.9670298
            },
            "location_type" : "ROOFTOP",
            "viewport" : {
               "northeast" : {
                  "lat" : 40.7830507802915,
                  "lng" : 29.9683981802915
               },
               "southwest" : {
                  "lat" : 40.7803528197085,
                  "lng" : 29.9657002197085
               }
            }
         },
         "place_id" : "ChIJwc1RFNpPyxQRIjUcPfp4joU",
         "types" : [ "premise" ]
      },
      {
         "address_components" : [
            {
               "long_name" : "262",
               "short_name" : "262",
               "types" : [ "street_number" ]
            },
            {
               "long_name" : "Tavşantepe Caddesi",
               "short_name" : "Tavşantepe Cd.",
               "types" : [ "route" ]
            },
            {
               "long_name" : "Tavşantepe",
               "short_name" : "Tavşantepe",
               "types" : [ "administrative_area_level_4", "political" ]
            },
            {
               "long_name" : "İzmit",
               "short_name" : "İzmit",
               "types" : [ "administrative_area_level_2", "political" ]
            },
            {
               "long_name" : "Kocaeli",
               "short_name" : "Kocaeli",
               "types" : [ "administrative_area_level_1", "political" ]
            },
            {
               "long_name" : "Turkey",
               "short_name" : "TR",
               "types" : [ "country", "political" ]
            },
            {
               "long_name" : "41060",
               "short_name" : "41060",
               "types" : [ "postal_code" ]
            }
         ],
         "formatted_address" : "Tavşantepe, Tavşantepe Cd. No:262, 41060 İzmit/Kocaeli, Turkey",
         "geometry" : {
            "location" : {
               "lat" : 40.782007,
               "lng" : 29.9677208
            },
            "location_type" : "RANGE_INTERPOLATED",
            "viewport" : {
               "northeast" : {
                  "lat" : 40.7833559802915,
                  "lng" : 29.9690697802915
               },
               "southwest" : {
                  "lat" : 40.7806580197085,
                  "lng" : 29.9663718197085
               }
            }
         },
         "place_id" : "EkFUYXbFn2FudGVwZSwgVGF2xZ9hbnRlcGUgQ2QuIE5vOjI2MiwgNDEwNjAgxLB6bWl0L0tvY2FlbGksIFR1cmtleSIbEhkKFAoSCSXcWT3aT8sUEbqj_nmyZCwhEIYC",
         "types" : [ "street_address" ]
      },
      {
         "address_components" : [
            {
               "long_name" : "244-266",
               "short_name" : "244-266",
               "types" : [ "street_number" ]
            },
            {
               "long_name" : "Tavşantepe Caddesi",
               "short_name" : "Tavşantepe Cd.",
               "types" : [ "route" ]
            },
            {
               "long_name" : "Tavşantepe",
               "short_name" : "Tavşantepe",
               "types" : [ "administrative_area_level_4", "political" ]
            },
            {
               "long_name" : "İzmit",
               "short_name" : "İzmit",
               "types" : [ "administrative_area_level_2", "political" ]
            },
            {
               "long_name" : "Kocaeli",
               "short_name" : "Kocaeli",
               "types" : [ "administrative_area_level_1", "political" ]
            },
            {
               "long_name" : "Turkey",
               "short_name" : "TR",
               "types" : [ "country", "political" ]
            },
            {
               "long_name" : "41060",
               "short_name" : "41060",
               "types" : [ "postal_code" ]
            }
         ],
         "formatted_address" : "Tavşantepe, Tavşantepe Cd. 244-266, 41060 İzmit/Kocaeli, Turkey",
         "geometry" : {
            "bounds" : {
               "northeast" : {
                  "lat" : 40.7821375,
                  "lng" : 29.9677773
               },
               "southwest" : {
                  "lat" : 40.7808802,
                  "lng" : 29.9672578
               }
            },
            "location" : {
               "lat" : 40.7815115,
               "lng" : 29.96750609999999
            },
            "location_type" : "GEOMETRIC_CENTER",
            "viewport" : {
               "northeast" : {
                  "lat" : 40.7828578302915,
                  "lng" : 29.9688665302915
               },
               "southwest" : {
                  "lat" : 40.7801598697085,
                  "lng" : 29.9661685697085
               }
            }
         },
         "place_id" : "ChIJJdxZPdpPyxQRuqP-ebJkLCE",
         "types" : [ "route" ]
      },
      {
         "address_components" : [
            {
               "long_name" : "QXJ9+Q3",
               "short_name" : "QXJ9+Q3",
               "types" : [ "plus_code" ]
            },
            {
               "long_name" : "İzmit",
               "short_name" : "İzmit",
               "types" : [ "administrative_area_level_2", "political" ]
            },
            {
               "long_name" : "Kocaeli",
               "short_name" : "Kocaeli",
               "types" : [ "administrative_area_level_1", "political" ]
            },
            {
               "long_name" : "Turkey",
               "short_name" : "TR",
               "types" : [ "country", "political" ]
            }
         ],
         "formatted_address" : "QXJ9+Q3 İzmit/Kocaeli, Turkey",
         "geometry" : {
            "bounds" : {
               "northeast" : {
                  "lat" : 40.782,
                  "lng" : 29.96775
               },
               "southwest" : {
                  "lat" : 40.781875,
                  "lng" : 29.967625
               }
            },
            "location" : {
               "lat" : 40.7819063,
               "lng" : 29.9676991
            },
            "location_type" : "ROOFTOP",
            "viewport" : {
               "northeast" : {
                  "lat" : 40.78328648029149,
                  "lng" : 29.9690364802915
               },
               "southwest" : {
                  "lat" : 40.78058851970849,
                  "lng" : 29.9663385197085
               }
            }
         },
         "place_id" : "GhIJp4RxgRVkREARXt7SILv3PUA",
         "plus_code" : {
            "compound_code" : "QXJ9+Q3 İzmit/Kocaeli, Turkey",
            "global_code" : "8GGFQXJ9+Q3"
         },
         "types" : [ "plus_code" ]
      },
      {
         "address_components" : [
            {
               "long_name" : "41060",
               "short_name" : "41060",
               "types" : [ "postal_code" ]
            },
            {
               "long_name" : "Tavşantepe",
               "short_name" : "Tavşantepe",
               "types" : [ "administrative_area_level_4", "political" ]
            },
            {
               "long_name" : "İzmit",
               "short_name" : "İzmit",
               "types" : [ "administrative_area_level_2", "political" ]
            },
            {
               "long_name" : "Kocaeli",
               "short_name" : "Kocaeli",
               "types" : [ "administrative_area_level_1", "political" ]
            },
            {
               "long_name" : "Turkey",
               "short_name" : "TR",
               "types" : [ "country", "political" ]
            }
         ],
         "formatted_address" : "Tavşantepe, 41060 İzmit/Kocaeli, Turkey",
         "geometry" : {
            "bounds" : {
               "northeast" : {
                  "lat" : 40.7858401,
                  "lng" : 29.97023489999999
               },
               "southwest" : {
                  "lat" : 40.774321,
                  "lng" : 29.9536311
               }
            },
            "location" : {
               "lat" : 40.78093080000001,
               "lng" : 29.9610447
            },
            "location_type" : "APPROXIMATE",
            "viewport" : {
               "northeast" : {
                  "lat" : 40.7858401,
                  "lng" : 29.97023489999999
               },
               "southwest" : {
                  "lat" : 40.774321,
                  "lng" : 29.9536311
               }
            }
         },
         "place_id" : "ChIJP4nTr8RPyxQRGGDJTT59Bz4",
         "types" : [ "postal_code" ]
      },
      {
         "address_components" : [
            {
               "long_name" : "Tavşantepe",
               "short_name" : "Tavşantepe",
               "types" : [ "administrative_area_level_4", "political" ]
            },
            {
               "long_name" : "İzmit",
               "short_name" : "İzmit",
               "types" : [ "administrative_area_level_2", "political" ]
            },
            {
               "long_name" : "Kocaeli",
               "short_name" : "Kocaeli",
               "types" : [ "administrative_area_level_1", "political" ]
            },
            {
               "long_name" : "Turkey",
               "short_name" : "TR",
               "types" : [ "country", "political" ]
            },
            {
               "long_name" : "41060",
               "short_name" : "41060",
               "types" : [ "postal_code" ]
            }
         ],
         "formatted_address" : "Tavşantepe, 41060 İzmit/Kocaeli, Turkey",
         "geometry" : {
            "bounds" : {
               "northeast" : {
                  "lat" : 40.7858401,
                  "lng" : 29.97023489999999
               },
               "southwest" : {
                  "lat" : 40.774321,
                  "lng" : 29.9536311
               }
            },
            "location" : {
               "lat" : 40.78093080000001,
               "lng" : 29.9610447
            },
            "location_type" : "APPROXIMATE",
            "viewport" : {
               "northeast" : {
                  "lat" : 40.7858401,
                  "lng" : 29.97023489999999
               },
               "southwest" : {
                  "lat" : 40.774321,
                  "lng" : 29.9536311
               }
            }
         },
         "place_id" : "ChIJiyYdr8RPyxQRVkCb0tkJptA",
         "types" : [ "administrative_area_level_4", "political" ]
      },
      {
         "address_components" : [
            {
               "long_name" : "İzmit",
               "short_name" : "İzmit",
               "types" : [ "locality", "political" ]
            },
            {
               "long_name" : "İzmit",
               "short_name" : "İzmit",
               "types" : [ "administrative_area_level_2", "political" ]
            },
            {
               "long_name" : "Kocaeli",
               "short_name" : "Kocaeli",
               "types" : [ "administrative_area_level_1", "political" ]
            },
            {
               "long_name" : "Turkey",
               "short_name" : "TR",
               "types" : [ "country", "political" ]
            }
         ],
         "formatted_address" : "İzmit, Kocaeli, Turkey",
         "geometry" : {
            "bounds" : {
               "northeast" : {
                  "lat" : 40.805401,
                  "lng" : 30.014834
               },
               "southwest" : {
                  "lat" : 40.736827,
                  "lng" : 29.8541681
               }
            },
            "location" : {
               "lat" : 40.7654408,
               "lng" : 29.9408089
            },
            "location_type" : "APPROXIMATE",
            "viewport" : {
               "northeast" : {
                  "lat" : 40.805401,
                  "lng" : 30.014834
               },
               "southwest" : {
                  "lat" : 40.736827,
                  "lng" : 29.8541681
               }
            }
         },
         "place_id" : "ChIJnftLZGZPyxQRuX5rWOcOaYI",
         "types" : [ "locality", "political" ]
      },
      {
         "address_components" : [
            {
               "long_name" : "İzmit",
               "short_name" : "İzmit",
               "types" : [ "administrative_area_level_2", "political" ]
            },
            {
               "long_name" : "Kocaeli",
               "short_name" : "Kocaeli",
               "types" : [ "administrative_area_level_1", "political" ]
            },
            {
               "long_name" : "Turkey",
               "short_name" : "TR",
               "types" : [ "country", "political" ]
            }
         ],
         "formatted_address" : "İzmit/Kocaeli, Turkey",
         "geometry" : {
            "bounds" : {
               "northeast" : {
                  "lat" : 40.971557,
                  "lng" : 30.2639339
               },
               "southwest" : {
                  "lat" : 40.720553,
                  "lng" : 29.8541681
               }
            },
            "location" : {
               "lat" : 40.8506635,
               "lng" : 30.0202964
            },
            "location_type" : "APPROXIMATE",
            "viewport" : {
               "northeast" : {
                  "lat" : 40.971557,
                  "lng" : 30.2639339
               },
               "southwest" : {
                  "lat" : 40.720553,
                  "lng" : 29.8541681
               }
            }
         },
         "place_id" : "ChIJL2DfPLZQyxQRitx6sY9PIGU",
         "types" : [ "administrative_area_level_2", "political" ]
      },
      {
         "address_components" : [
            {
               "long_name" : "Kocaeli",
               "short_name" : "Kocaeli",
               "types" : [ "administrative_area_level_1", "political" ]
            },
            {
               "long_name" : "Turkey",
               "short_name" : "TR",
               "types" : [ "country", "political" ]
            }
         ],
         "formatted_address" : "Kocaeli, Turkey",
         "geometry" : {
            "bounds" : {
               "northeast" : {
                  "lat" : 41.20976,
                  "lng" : 30.367743
               },
               "southwest" : {
                  "lat" : 40.524151,
                  "lng" : 29.3331261
               }
            },
            "location" : {
               "lat" : 40.8532704,
               "lng" : 29.8815203
            },
            "location_type" : "APPROXIMATE",
            "viewport" : {
               "northeast" : {
                  "lat" : 41.20976,
                  "lng" : 30.367743
               },
               "southwest" : {
                  "lat" : 40.524151,
                  "lng" : 29.3331261
               }
            }
         },
         "place_id" : "ChIJQ8zKb5QgyxQRWdhW642zLKg",
         "types" : [ "administrative_area_level_1", "political" ]
      },
      {
         "address_components" : [
            {
               "long_name" : "Turkey",
               "short_name" : "TR",
               "types" : [ "country", "political" ]
            }
         ],
         "formatted_address" : "Turkey",
         "geometry" : {
            "bounds" : {
               "northeast" : {
                  "lat" : 42.3666999,
                  "lng" : 44.8178449
               },
               "southwest" : {
                  "lat" : 35.808592,
                  "lng" : 25.5377
               }
            },
            "location" : {
               "lat" : 38.963745,
               "lng" : 35.243322
            },
            "location_type" : "APPROXIMATE",
            "viewport" : {
               "northeast" : {
                  "lat" : 42.3666999,
                  "lng" : 44.8178449
               },
               "southwest" : {
                  "lat" : 35.808592,
                  "lng" : 25.5377
               }
            }
         },
         "place_id" : "ChIJcSZPllwVsBQRKl9iKtTb2UA",
         "types" : [ "country", "political" ]
      }
   ],
   "status" : "OK"
}
