{
   "plus_code" : {
      "compound_code" : "WRVR+23H Derince/Kocaeli, Turkey",
      "global_code" : "8GGFWRVR+23H"
   },
   "results" : [
      {
         "address_components" : [
            {
               "long_name" : "WRVR+23",
               "short_name" : "WRVR+23",
               "types" : [ "plus_code" ]
            },
            {
               "long_name" : "Derince",
               "short_name" : "Derince",
               "types" : [ "administrative_area_level_2", "political" ]
            },
            {
               "long_name" : "Kocaeli",
               "short_name" : "Kocaeli",
               "types" : [ "administrative_area_level_1", "political" ]
            },
            {
               "long_name" : "Turkey",
               "short_name" : "TR",
               "types" : [ "country", "political" ]
            }
         ],
         "formatted_address" : "WRVR+23 Derince/Kocaeli, Turkey",
         "geometry" : {
            "bounds" : {
               "northeast" : {
                  "lat" : 40.942625,
                  "lng" : 29.84025
               },
               "southwest" : {
                  "lat" : 40.9425,
                  "lng" : 29.840125
               }
            },
            "location" : {
               "lat" : 40.94256439999999,
               "lng" : 29.8402405
            },
            "location_type" : "GEOMETRIC_CENTER",
            "viewport" : {
               "northeast" : {
                  "lat" : 40.9439114802915,
                  "lng" : 29.8415364802915
               },
               "southwest" : {
                  "lat" : 40.9412135197085,
                  "lng" : 29.8388385197085
               }
            }
         },
         "place_id" : "GhIJ2i9E86V4REARUUZcABrXPUA",
         "plus_code" : {
            "compound_code" : "WRVR+23 Derince/Kocaeli, Turkey",
            "global_code" : "8GGFWRVR+23"
         },
         "types" : [ "plus_code" ]
      },
      {
         "address_components" : [
            {
               "long_name" : "41900",
               "short_name" : "41900",
               "types" : [ "postal_code" ]
            },
            {
               "long_name" : "Karagöllü",
               "short_name" : "Karagöllü",
               "types" : [ "administrative_area_level_4", "political" ]
            },
            {
               "long_name" : "Derince",
               "short_name" : "Derince",
               "types" : [ "administrative_area_level_2", "political" ]
            },
            {
               "long_name" : "Kocaeli",
               "short_name" : "Kocaeli",
               "types" : [ "administrative_area_level_1", "political" ]
            },
            {
               "long_name" : "Turkey",
               "short_name" : "TR",
               "types" : [ "country", "political" ]
            }
         ],
         "formatted_address" : "Karagöllü, 41900 Derince/Kocaeli, Turkey",
         "geometry" : {
            "bounds" : {
               "northeast" : {
                  "lat" : 41.020148,
                  "lng" : 29.8556849
               },
               "southwest" : {
                  "lat" : 40.916115,
                  "lng" : 29.7896059
               }
            },
            "location" : {
               "lat" : 40.9710319,
               "lng" : 29.8246462
            },
            "location_type" : "APPROXIMATE",
            "viewport" : {
               "northeast" : {
                  "lat" : 41.020148,
                  "lng" : 29.8556849
               },
               "southwest" : {
                  "lat" : 40.916115,
                  "lng" : 29.7896059
               }
            }
         },
         "place_id" : "ChIJwWc7WzRGyxQReqjwfwAjWkc",
         "types" : [ "postal_code" ]
      },
      {
         "address_components" : [
            {
               "long_name" : "Karagöllü",
               "short_name" : "Karagöllü",
               "types" : [ "administrative_area_level_4", "political" ]
            },
            {
               "long_name" : "Derince",
               "short_name" : "Derince",
               "types" : [ "administrative_area_level_2", "political" ]
            },
            {
               "long_name" : "Kocaeli",
               "short_name" : "Kocaeli",
               "types" : [ "administrative_area_level_1", "political" ]
            },
            {
               "long_name" : "Turkey",
               "short_name" : "TR",
               "types" : [ "country", "political" ]
            }
         ],
         "formatted_address" : "Karagöllü, Derince/Kocaeli, Turkey",
         "geometry" : {
            "bounds" : {
               "northeast" : {
                  "lat" : 41.020148,
                  "lng" : 29.8556849
               },
               "southwest" : {
                  "lat" : 40.916115,
                  "lng" : 29.7896059
               }
            },
            "location" : {
               "lat" : 40.9710319,
               "lng" : 29.8246462
            },
            "location_type" : "APPROXIMATE",
            "viewport" : {
               "northeast" : {
                  "lat" : 41.020148,
                  "lng" : 29.8556849
               },
               "southwest" : {
                  "lat" : 40.916115,
                  "lng" : 29.7896059
               }
            }
         },
         "place_id" : "ChIJgU22WfsfnkARZMy_WouXUXU",
         "types" : [ "administrative_area_level_4", "political" ]
      },
      {
         "address_components" : [
            {
               "long_name" : "Derince",
               "short_name" : "Derince",
               "types" : [ "administrative_area_level_2", "political" ]
            },
            {
               "long_name" : "Kocaeli",
               "short_name" : "Kocaeli",
               "types" : [ "administrative_area_level_1", "political" ]
            },
            {
               "long_name" : "Turkey",
               "short_name" : "TR",
               "types" : [ "country", "political" ]
            }
         ],
         "formatted_address" : "Derince/Kocaeli, Turkey",
         "geometry" : {
            "bounds" : {
               "northeast" : {
                  "lat" : 41.020148,
                  "lng" : 29.9408809
               },
               "southwest" : {
                  "lat" : 40.7433789,
                  "lng" : 29.7896059
               }
            },
            "location" : {
               "lat" : 40.8651717,
               "lng" : 29.9046594
            },
            "location_type" : "APPROXIMATE",
            "viewport" : {
               "northeast" : {
                  "lat" : 41.020148,
                  "lng" : 29.9408809
               },
               "southwest" : {
                  "lat" : 40.7433789,
                  "lng" : 29.7896059
               }
            }
         },
         "place_id" : "ChIJEQyDfJZLyxQRlUruAGfzeKE",
         "types" : [ "administrative_area_level_2", "political" ]
      },
      {
         "address_components" : [
            {
               "long_name" : "Kocaeli",
               "short_name" : "Kocaeli",
               "types" : [ "administrative_area_level_1", "political" ]
            },
            {
               "long_name" : "Turkey",
               "short_name" : "TR",
               "types" : [ "country", "political" ]
            }
         ],
         "formatted_address" : "Kocaeli, Turkey",
         "geometry" : {
            "bounds" : {
               "northeast" : {
                  "lat" : 41.20976,
                  "lng" : 30.367743
               },
               "southwest" : {
                  "lat" : 40.524151,
                  "lng" : 29.3331261
               }
            },
            "location" : {
               "lat" : 40.8532704,
               "lng" : 29.8815203
            },
            "location_type" : "APPROXIMATE",
            "viewport" : {
               "northeast" : {
                  "lat" : 41.20976,
                  "lng" : 30.367743
               },
               "southwest" : {
                  "lat" : 40.524151,
                  "lng" : 29.3331261
               }
            }
         },
         "place_id" : "ChIJQ8zKb5QgyxQRWdhW642zLKg",
         "types" : [ "administrative_area_level_1", "political" ]
      },
      {
         "address_components" : [
            {
               "long_name" : "Turkey",
               "short_name" : "TR",
               "types" : [ "country", "political" ]
            }
         ],
         "formatted_address" : "Turkey",
         "geometry" : {
            "bounds" : {
               "northeast" : {
                  "lat" : 42.3666999,
                  "lng" : 44.8178449
               },
               "southwest" : {
                  "lat" : 35.808592,
                  "lng" : 25.5377
               }
            },
            "location" : {
               "lat" : 38.963745,
               "lng" : 35.243322
            },
            "location_type" : "APPROXIMATE",
            "viewport" : {
               "northeast" : {
                  "lat" : 42.3666999,
                  "lng" : 44.8178449
               },
               "southwest" : {
                  "lat" : 35.808592,
                  "lng" : 25.5377
               }
            }
         },
         "place_id" : "ChIJcSZPllwVsBQRKl9iKtTb2UA",
         "types" : [ "country", "political" ]
      }
   ],
   "status" : "OK"
}
