{
   "plus_code" : {
      "compound_code" : "Q254+V2 Kartepe/Kocaeli, Turkey",
      "global_code" : "8GGGQ254+V2"
   },
   "results" : [
      {
         "address_components" : [
            {
               "long_name" : "Q254+V2",
               "short_name" : "Q254+V2",
               "types" : [ "plus_code" ]
            },
            {
               "long_name" : "Kartepe",
               "short_name" : "Kartepe",
               "types" : [ "administrative_area_level_2", "political" ]
            },
            {
               "long_name" : "Kocaeli",
               "short_name" : "Kocaeli",
               "types" : [ "administrative_area_level_1", "political" ]
            },
            {
               "long_name" : "Turkey",
               "short_name" : "TR",
               "types" : [ "country", "political" ]
            }
         ],
         "formatted_address" : "Q254+V2 Kartepe/Kocaeli, Turkey",
         "geometry" : {
            "bounds" : {
               "northeast" : {
                  "lat" : 40.75975,
                  "lng" : 30.005125
               },
               "southwest" : {
                  "lat" : 40.759625,
                  "lng" : 30.005
               }
            },
            "location" : {
               "lat" : 40.7597406,
               "lng" : 30.0050354
            },
            "location_type" : "ROOFTOP",
            "viewport" : {
               "northeast" : {
                  "lat" : 40.7610364802915,
                  "lng" : 30.0064114802915
               },
               "southwest" : {
                  "lat" : 40.7583385197085,
                  "lng" : 30.0037135197085
               }
            }
         },
         "place_id" : "GhIJwjgTLj9hREARgVL-_0kBPkA",
         "plus_code" : {
            "compound_code" : "Q254+V2 Kartepe/Kocaeli, Turkey",
            "global_code" : "8GGGQ254+V2"
         },
         "types" : [ "plus_code" ]
      },
      {
         "address_components" : [
            {
               "long_name" : "Unnamed Road",
               "short_name" : "Unnamed Road",
               "types" : [ "route" ]
            },
            {
               "long_name" : "Çayırköy",
               "short_name" : "Çayırköy",
               "types" : [ "administrative_area_level_4", "political" ]
            },
            {
               "long_name" : "Kartepe",
               "short_name" : "Kartepe",
               "types" : [ "administrative_area_level_2", "political" ]
            },
            {
               "long_name" : "Kocaeli",
               "short_name" : "Kocaeli",
               "types" : [ "administrative_area_level_1", "political" ]
            },
            {
               "long_name" : "Turkey",
               "short_name" : "TR",
               "types" : [ "country", "political" ]
            },
            {
               "long_name" : "41250",
               "short_name" : "41250",
               "types" : [ "postal_code" ]
            }
         ],
         "formatted_address" : "Çayırköy, Unnamed Road, 41250 Kartepe/Kocaeli, Turkey",
         "geometry" : {
            "bounds" : {
               "northeast" : {
                  "lat" : 40.7590119,
                  "lng" : 30.0054184
               },
               "southwest" : {
                  "lat" : 40.7588993,
                  "lng" : 30.0046025
               }
            },
            "location" : {
               "lat" : 40.7589566,
               "lng" : 30.0050107
            },
            "location_type" : "GEOMETRIC_CENTER",
            "viewport" : {
               "northeast" : {
                  "lat" : 40.7603045802915,
                  "lng" : 30.00635943029149
               },
               "southwest" : {
                  "lat" : 40.7576066197085,
                  "lng" : 30.0036614697085
               }
            }
         },
         "place_id" : "ChIJzf7lPGlQyxQRxOsV9X-rOm4",
         "types" : [ "route" ]
      },
      {
         "address_components" : [
            {
               "long_name" : "41250",
               "short_name" : "41250",
               "types" : [ "postal_code" ]
            },
            {
               "long_name" : "Dumlupınar",
               "short_name" : "Dumlupınar",
               "types" : [ "administrative_area_level_4", "political" ]
            },
            {
               "long_name" : "Kartepe",
               "short_name" : "Kartepe",
               "types" : [ "administrative_area_level_2", "political" ]
            },
            {
               "long_name" : "Kocaeli",
               "short_name" : "Kocaeli",
               "types" : [ "administrative_area_level_1", "political" ]
            },
            {
               "long_name" : "Turkey",
               "short_name" : "TR",
               "types" : [ "country", "political" ]
            }
         ],
         "formatted_address" : "Dumlupınar, 41250 Kartepe/Kocaeli, Turkey",
         "geometry" : {
            "bounds" : {
               "northeast" : {
                  "lat" : 40.766667,
                  "lng" : 30.0325759
               },
               "southwest" : {
                  "lat" : 40.7521091,
                  "lng" : 29.994263
               }
            },
            "location" : {
               "lat" : 40.758402,
               "lng" : 30.0116271
            },
            "location_type" : "APPROXIMATE",
            "viewport" : {
               "northeast" : {
                  "lat" : 40.766667,
                  "lng" : 30.0325759
               },
               "southwest" : {
                  "lat" : 40.7521091,
                  "lng" : 29.994263
               }
            }
         },
         "place_id" : "ChIJ6YT2Q2dQyxQR0LFWkbSvIrk",
         "types" : [ "postal_code" ]
      },
      {
         "address_components" : [
            {
               "long_name" : "Dumlupınar",
               "short_name" : "Dumlupınar",
               "types" : [ "administrative_area_level_4", "political" ]
            },
            {
               "long_name" : "Kartepe",
               "short_name" : "Kartepe",
               "types" : [ "administrative_area_level_2", "political" ]
            },
            {
               "long_name" : "Kocaeli",
               "short_name" : "Kocaeli",
               "types" : [ "administrative_area_level_1", "political" ]
            },
            {
               "long_name" : "Turkey",
               "short_name" : "TR",
               "types" : [ "country", "political" ]
            }
         ],
         "formatted_address" : "Dumlupınar, Kartepe/Kocaeli, Turkey",
         "geometry" : {
            "bounds" : {
               "northeast" : {
                  "lat" : 40.766667,
                  "lng" : 30.0325759
               },
               "southwest" : {
                  "lat" : 40.7521091,
                  "lng" : 29.993045
               }
            },
            "location" : {
               "lat" : 40.7559663,
               "lng" : 30.0181291
            },
            "location_type" : "APPROXIMATE",
            "viewport" : {
               "northeast" : {
                  "lat" : 40.766667,
                  "lng" : 30.0325759
               },
               "southwest" : {
                  "lat" : 40.7521091,
                  "lng" : 29.993045
               }
            }
         },
         "place_id" : "ChIJ3wuQG2FQyxQRlNcRkfsgu0g",
         "types" : [ "administrative_area_level_4", "political" ]
      },
      {
         "address_components" : [
            {
               "long_name" : "Kartepe",
               "short_name" : "Kartepe",
               "types" : [ "administrative_area_level_2", "political" ]
            },
            {
               "long_name" : "Kocaeli",
               "short_name" : "Kocaeli",
               "types" : [ "administrative_area_level_1", "political" ]
            },
            {
               "long_name" : "Turkey",
               "short_name" : "TR",
               "types" : [ "country", "political" ]
            }
         ],
         "formatted_address" : "Kartepe/Kocaeli, Turkey",
         "geometry" : {
            "bounds" : {
               "northeast" : {
                  "lat" : 40.786927,
                  "lng" : 30.26217
               },
               "southwest" : {
                  "lat" : 40.588952,
                  "lng" : 29.9860989
               }
            },
            "location" : {
               "lat" : 40.70139169999999,
               "lng" : 30.0896313
            },
            "location_type" : "APPROXIMATE",
            "viewport" : {
               "northeast" : {
                  "lat" : 40.786927,
                  "lng" : 30.26217
               },
               "southwest" : {
                  "lat" : 40.588952,
                  "lng" : 29.9860989
               }
            }
         },
         "place_id" : "ChIJY9NMDlFYyxQRxGvcZ6xs_aY",
         "types" : [ "administrative_area_level_2", "political" ]
      },
      {
         "address_components" : [
            {
               "long_name" : "Kocaeli",
               "short_name" : "Kocaeli",
               "types" : [ "administrative_area_level_1", "political" ]
            },
            {
               "long_name" : "Turkey",
               "short_name" : "TR",
               "types" : [ "country", "political" ]
            }
         ],
         "formatted_address" : "Kocaeli, Turkey",
         "geometry" : {
            "bounds" : {
               "northeast" : {
                  "lat" : 41.20976,
                  "lng" : 30.367743
               },
               "southwest" : {
                  "lat" : 40.524151,
                  "lng" : 29.3331261
               }
            },
            "location" : {
               "lat" : 40.8532704,
               "lng" : 29.8815203
            },
            "location_type" : "APPROXIMATE",
            "viewport" : {
               "northeast" : {
                  "lat" : 41.20976,
                  "lng" : 30.367743
               },
               "southwest" : {
                  "lat" : 40.524151,
                  "lng" : 29.3331261
               }
            }
         },
         "place_id" : "ChIJQ8zKb5QgyxQRWdhW642zLKg",
         "types" : [ "administrative_area_level_1", "political" ]
      },
      {
         "address_components" : [
            {
               "long_name" : "Turkey",
               "short_name" : "TR",
               "types" : [ "country", "political" ]
            }
         ],
         "formatted_address" : "Turkey",
         "geometry" : {
            "bounds" : {
               "northeast" : {
                  "lat" : 42.3666999,
                  "lng" : 44.8178449
               },
               "southwest" : {
                  "lat" : 35.808592,
                  "lng" : 25.5377
               }
            },
            "location" : {
               "lat" : 38.963745,
               "lng" : 35.243322
            },
            "location_type" : "APPROXIMATE",
            "viewport" : {
               "northeast" : {
                  "lat" : 42.3666999,
                  "lng" : 44.8178449
               },
               "southwest" : {
                  "lat" : 35.808592,
                  "lng" : 25.5377
               }
            }
         },
         "place_id" : "ChIJcSZPllwVsBQRKl9iKtTb2UA",
         "types" : [ "country", "political" ]
      }
   ],
   "status" : "OK"
}
