{
   "plus_code" : {
      "compound_code" : "58J6+RRC Torbalı/İzmir, Turkey",
      "global_code" : "8GC958J6+RRC"
   },
   "results" : [
      {
         "address_components" : [
            {
               "long_name" : "58J6+RR",
               "short_name" : "58J6+RR",
               "types" : [ "plus_code" ]
            },
            {
               "long_name" : "Torbalı",
               "short_name" : "Torbalı",
               "types" : [ "administrative_area_level_2", "political" ]
            },
            {
               "long_name" : "İzmir",
               "short_name" : "İzmir",
               "types" : [ "administrative_area_level_1", "political" ]
            },
            {
               "long_name" : "Turkey",
               "short_name" : "TR",
               "types" : [ "country", "political" ]
            }
         ],
         "formatted_address" : "58J6+RR Torbalı/İzmir, Turkey",
         "geometry" : {
            "bounds" : {
               "northeast" : {
                  "lat" : 38.182125,
                  "lng" : 27.312125
               },
               "southwest" : {
                  "lat" : 38.182,
                  "lng" : 27.312
               }
            },
            "location" : {
               "lat" : 38.182069,
               "lng" : 27.3120117
            },
            "location_type" : "GEOMETRIC_CENTER",
            "viewport" : {
               "northeast" : {
                  "lat" : 38.18341148029149,
                  "lng" : 27.3134114802915
               },
               "southwest" : {
                  "lat" : 38.18071351970849,
                  "lng" : 27.3107135197085
               }
            }
         },
         "place_id" : "GhIJxk54CU4XQ0ARKHiv_99PO0A",
         "plus_code" : {
            "compound_code" : "58J6+RR Torbalı/İzmir, Turkey",
            "global_code" : "8GC958J6+RR"
         },
         "types" : [ "plus_code" ]
      },
      {
         "address_components" : [
            {
               "long_name" : "İzmir-Aydın Otoyolu",
               "short_name" : "E87",
               "types" : [ "route" ]
            },
            {
               "long_name" : "Özbey",
               "short_name" : "Özbey",
               "types" : [ "administrative_area_level_4", "political" ]
            },
            {
               "long_name" : "Torbalı",
               "short_name" : "Torbalı",
               "types" : [ "administrative_area_level_2", "political" ]
            },
            {
               "long_name" : "İzmir",
               "short_name" : "İzmir",
               "types" : [ "administrative_area_level_1", "political" ]
            },
            {
               "long_name" : "Turkey",
               "short_name" : "TR",
               "types" : [ "country", "political" ]
            },
            {
               "long_name" : "35860",
               "short_name" : "35860",
               "types" : [ "postal_code" ]
            }
         ],
         "formatted_address" : "Özbey, E87, 35860 Torbalı/İzmir, Turkey",
         "geometry" : {
            "bounds" : {
               "northeast" : {
                  "lat" : 38.1824131,
                  "lng" : 27.3119794
               },
               "southwest" : {
                  "lat" : 38.1796427,
                  "lng" : 27.3110559
               }
            },
            "location" : {
               "lat" : 38.1810279,
               "lng" : 27.3115167
            },
            "location_type" : "GEOMETRIC_CENTER",
            "viewport" : {
               "northeast" : {
                  "lat" : 38.1824131,
                  "lng" : 27.3128666302915
               },
               "southwest" : {
                  "lat" : 38.1796427,
                  "lng" : 27.3101686697085
               }
            }
         },
         "place_id" : "ChIJ48wG4JxbuRQRfoLrPdX3Jq0",
         "types" : [ "route" ]
      },
      {
         "address_components" : [
            {
               "long_name" : "35860",
               "short_name" : "35860",
               "types" : [ "postal_code" ]
            },
            {
               "long_name" : "Kaplancık",
               "short_name" : "Kaplancık",
               "types" : [ "administrative_area_level_4", "political" ]
            },
            {
               "long_name" : "Torbalı",
               "short_name" : "Torbalı",
               "types" : [ "administrative_area_level_2", "political" ]
            },
            {
               "long_name" : "İzmir",
               "short_name" : "İzmir",
               "types" : [ "administrative_area_level_1", "political" ]
            },
            {
               "long_name" : "Turkey",
               "short_name" : "TR",
               "types" : [ "country", "political" ]
            }
         ],
         "formatted_address" : "Kaplancık, 35860 Torbalı/İzmir, Turkey",
         "geometry" : {
            "bounds" : {
               "northeast" : {
                  "lat" : 38.212644,
                  "lng" : 27.314915
               },
               "southwest" : {
                  "lat" : 38.1449669,
                  "lng" : 27.22928
               }
            },
            "location" : {
               "lat" : 38.1900098,
               "lng" : 27.2793685
            },
            "location_type" : "APPROXIMATE",
            "viewport" : {
               "northeast" : {
                  "lat" : 38.212644,
                  "lng" : 27.314915
               },
               "southwest" : {
                  "lat" : 38.1449669,
                  "lng" : 27.22928
               }
            }
         },
         "place_id" : "ChIJd7gjk95buRQRlTN3vO8IVl0",
         "types" : [ "postal_code" ]
      },
      {
         "address_components" : [
            {
               "long_name" : "Kaplancık",
               "short_name" : "Kaplancık",
               "types" : [ "administrative_area_level_4", "political" ]
            },
            {
               "long_name" : "Torbalı",
               "short_name" : "Torbalı",
               "types" : [ "administrative_area_level_2", "political" ]
            },
            {
               "long_name" : "İzmir",
               "short_name" : "İzmir",
               "types" : [ "administrative_area_level_1", "political" ]
            },
            {
               "long_name" : "Turkey",
               "short_name" : "TR",
               "types" : [ "country", "political" ]
            },
            {
               "long_name" : "35860",
               "short_name" : "35860",
               "types" : [ "postal_code" ]
            }
         ],
         "formatted_address" : "Kaplancık, 35860 Torbalı/İzmir, Turkey",
         "geometry" : {
            "bounds" : {
               "northeast" : {
                  "lat" : 38.212644,
                  "lng" : 27.314915
               },
               "southwest" : {
                  "lat" : 38.144975,
                  "lng" : 27.22928
               }
            },
            "location" : {
               "lat" : 38.1900098,
               "lng" : 27.2793685
            },
            "location_type" : "APPROXIMATE",
            "viewport" : {
               "northeast" : {
                  "lat" : 38.212644,
                  "lng" : 27.314915
               },
               "southwest" : {
                  "lat" : 38.144975,
                  "lng" : 27.22928
               }
            }
         },
         "place_id" : "ChIJG8am2LlbuRQRkEfqIbOCo7Q",
         "types" : [ "administrative_area_level_4", "political" ]
      },
      {
         "address_components" : [
            {
               "long_name" : "Torbalı",
               "short_name" : "Torbalı",
               "types" : [ "administrative_area_level_2", "political" ]
            },
            {
               "long_name" : "İzmir",
               "short_name" : "İzmir",
               "types" : [ "administrative_area_level_1", "political" ]
            },
            {
               "long_name" : "Turkey",
               "short_name" : "TR",
               "types" : [ "country", "political" ]
            }
         ],
         "formatted_address" : "Torbalı/İzmir, Turkey",
         "geometry" : {
            "bounds" : {
               "northeast" : {
                  "lat" : 38.327714,
                  "lng" : 27.52291
               },
               "southwest" : {
                  "lat" : 38.00624,
                  "lng" : 27.2061779
               }
            },
            "location" : {
               "lat" : 38.1927986,
               "lng" : 27.3851496
            },
            "location_type" : "APPROXIMATE",
            "viewport" : {
               "northeast" : {
                  "lat" : 38.327714,
                  "lng" : 27.52291
               },
               "southwest" : {
                  "lat" : 38.00624,
                  "lng" : 27.2061779
               }
            }
         },
         "place_id" : "ChIJn6j8HVhDuRQRXa9CJSEZ2mw",
         "types" : [ "administrative_area_level_2", "political" ]
      },
      {
         "address_components" : [
            {
               "long_name" : "İzmir",
               "short_name" : "İzmir",
               "types" : [ "administrative_area_level_1", "political" ]
            },
            {
               "long_name" : "Turkey",
               "short_name" : "TR",
               "types" : [ "country", "political" ]
            }
         ],
         "formatted_address" : "İzmir, Turkey",
         "geometry" : {
            "bounds" : {
               "northeast" : {
                  "lat" : 39.385446,
                  "lng" : 28.493051
               },
               "southwest" : {
                  "lat" : 37.8128519,
                  "lng" : 26.2302011
               }
            },
            "location" : {
               "lat" : 38.3591693,
               "lng" : 27.2676116
            },
            "location_type" : "APPROXIMATE",
            "viewport" : {
               "northeast" : {
                  "lat" : 39.385446,
                  "lng" : 28.493051
               },
               "southwest" : {
                  "lat" : 37.8128519,
                  "lng" : 26.2302011
               }
            }
         },
         "place_id" : "ChIJ-WH1ACuduRQR49dv6TmTrs4",
         "types" : [ "administrative_area_level_1", "political" ]
      },
      {
         "address_components" : [
            {
               "long_name" : "Turkey",
               "short_name" : "TR",
               "types" : [ "country", "political" ]
            }
         ],
         "formatted_address" : "Turkey",
         "geometry" : {
            "bounds" : {
               "northeast" : {
                  "lat" : 42.3666999,
                  "lng" : 44.8178449
               },
               "southwest" : {
                  "lat" : 35.808592,
                  "lng" : 25.5377
               }
            },
            "location" : {
               "lat" : 38.963745,
               "lng" : 35.243322
            },
            "location_type" : "APPROXIMATE",
            "viewport" : {
               "northeast" : {
                  "lat" : 42.3666999,
                  "lng" : 44.8178449
               },
               "southwest" : {
                  "lat" : 35.808592,
                  "lng" : 25.5377
               }
            }
         },
         "place_id" : "ChIJcSZPllwVsBQRKl9iKtTb2UA",
         "types" : [ "country", "political" ]
      }
   ],
   "status" : "OK"
}
