{
   "plus_code" : {
      "compound_code" : "V2P3+PF3 Büyükaslıhanlar/Dumlupınar/Kütahya, Turkey",
      "global_code" : "8GCGV2P3+PF3"
   },
   "results" : [
      {
         "address_components" : [
            {
               "long_name" : "V2P3+PF",
               "short_name" : "V2P3+PF",
               "types" : [ "plus_code" ]
            },
            {
               "long_name" : "Büyükaslıhanlar",
               "short_name" : "Büyükaslıhanlar",
               "types" : [ "administrative_area_level_3", "political" ]
            },
            {
               "long_name" : "Dumlupınar",
               "short_name" : "Dumlupınar",
               "types" : [ "administrative_area_level_2", "political" ]
            },
            {
               "long_name" : "Kütahya",
               "short_name" : "Kütahya",
               "types" : [ "administrative_area_level_1", "political" ]
            },
            {
               "long_name" : "Turkey",
               "short_name" : "TR",
               "types" : [ "country", "political" ]
            },
            {
               "long_name" : "43820",
               "short_name" : "43820",
               "types" : [ "postal_code" ]
            }
         ],
         "formatted_address" : "V2P3+PF Büyükaslıhanlar/Dumlupınar/Kütahya, Turkey",
         "geometry" : {
            "bounds" : {
               "northeast" : {
                  "lat" : 38.886875,
                  "lng" : 30.00375
               },
               "southwest" : {
                  "lat" : 38.88675,
                  "lng" : 30.003625
               }
            },
            "location" : {
               "lat" : 38.8867571,
               "lng" : 30.0036621
            },
            "location_type" : "GEOMETRIC_CENTER",
            "viewport" : {
               "northeast" : {
                  "lat" : 38.88816148029149,
                  "lng" : 30.0050364802915
               },
               "southwest" : {
                  "lat" : 38.88546351970849,
                  "lng" : 30.0023385197085
               }
            }
         },
         "place_id" : "GhIJdv-zQYFxQ0ARE7zX_-8APkA",
         "plus_code" : {
            "compound_code" : "V2P3+PF Büyükaslıhanlar/Dumlupınar/Kütahya, Turkey",
            "global_code" : "8GCGV2P3+PF"
         },
         "types" : [ "plus_code" ]
      },
      {
         "address_components" : [
            {
               "long_name" : "Unnamed Road",
               "short_name" : "Unnamed Road",
               "types" : [ "route" ]
            },
            {
               "long_name" : "Zafer",
               "short_name" : "Zafer",
               "types" : [ "administrative_area_level_4", "political" ]
            },
            {
               "long_name" : "Büyükaslıhanlar",
               "short_name" : "Büyükaslıhanlar",
               "types" : [ "administrative_area_level_3", "political" ]
            },
            {
               "long_name" : "Dumlupınar",
               "short_name" : "Dumlupınar",
               "types" : [ "administrative_area_level_2", "political" ]
            },
            {
               "long_name" : "Kütahya",
               "short_name" : "Kütahya",
               "types" : [ "administrative_area_level_1", "political" ]
            },
            {
               "long_name" : "Turkey",
               "short_name" : "TR",
               "types" : [ "country", "political" ]
            },
            {
               "long_name" : "43820",
               "short_name" : "43820",
               "types" : [ "postal_code" ]
            }
         ],
         "formatted_address" : "Zafer, Unnamed Road, 43820 Büyükaslıhanlar/Dumlupınar/Kütahya, Turkey",
         "geometry" : {
            "bounds" : {
               "northeast" : {
                  "lat" : 38.8867359,
                  "lng" : 30.003508
               },
               "southwest" : {
                  "lat" : 38.8818348,
                  "lng" : 29.9989181
               }
            },
            "location" : {
               "lat" : 38.8841798,
               "lng" : 30.0017156
            },
            "location_type" : "GEOMETRIC_CENTER",
            "viewport" : {
               "northeast" : {
                  "lat" : 38.8867359,
                  "lng" : 30.003508
               },
               "southwest" : {
                  "lat" : 38.8818348,
                  "lng" : 29.9989181
               }
            }
         },
         "place_id" : "ChIJQcjePj7PyBQRon_u0mTLf_c",
         "types" : [ "route" ]
      },
      {
         "address_components" : [
            {
               "long_name" : "Büyükaslıhanlar",
               "short_name" : "Büyükaslıhanlar",
               "types" : [ "administrative_area_level_3", "political" ]
            },
            {
               "long_name" : "Dumlupınar",
               "short_name" : "Dumlupınar",
               "types" : [ "administrative_area_level_2", "political" ]
            },
            {
               "long_name" : "Kütahya",
               "short_name" : "Kütahya",
               "types" : [ "administrative_area_level_1", "political" ]
            },
            {
               "long_name" : "Turkey",
               "short_name" : "TR",
               "types" : [ "country", "political" ]
            },
            {
               "long_name" : "43820",
               "short_name" : "43820",
               "types" : [ "postal_code" ]
            }
         ],
         "formatted_address" : "43820 Büyükaslıhanlar/Dumlupınar/Kütahya, Turkey",
         "geometry" : {
            "bounds" : {
               "northeast" : {
                  "lat" : 38.928874,
                  "lng" : 30.029626
               },
               "southwest" : {
                  "lat" : 38.867543,
                  "lng" : 29.988099
               }
            },
            "location" : {
               "lat" : 38.8927132,
               "lng" : 30.0087372
            },
            "location_type" : "APPROXIMATE",
            "viewport" : {
               "northeast" : {
                  "lat" : 38.928874,
                  "lng" : 30.029626
               },
               "southwest" : {
                  "lat" : 38.867543,
                  "lng" : 29.988099
               }
            }
         },
         "place_id" : "ChIJ2a3INgTPyBQRqNIpVUx9pI0",
         "types" : [ "administrative_area_level_3", "political" ]
      },
      {
         "address_components" : [
            {
               "long_name" : "Dumlupınar",
               "short_name" : "Dumlupınar",
               "types" : [ "administrative_area_level_2", "political" ]
            },
            {
               "long_name" : "Kütahya",
               "short_name" : "Kütahya",
               "types" : [ "administrative_area_level_1", "political" ]
            },
            {
               "long_name" : "Turkey",
               "short_name" : "TR",
               "types" : [ "country", "political" ]
            },
            {
               "long_name" : "43820",
               "short_name" : "43820",
               "types" : [ "postal_code" ]
            }
         ],
         "formatted_address" : "43820 Dumlupınar/Kütahya, Turkey",
         "geometry" : {
            "bounds" : {
               "northeast" : {
                  "lat" : 39.0131551,
                  "lng" : 30.2072541
               },
               "southwest" : {
                  "lat" : 38.8154809,
                  "lng" : 29.808065
               }
            },
            "location" : {
               "lat" : 38.9245585,
               "lng" : 29.9971769
            },
            "location_type" : "APPROXIMATE",
            "viewport" : {
               "northeast" : {
                  "lat" : 39.0131551,
                  "lng" : 30.2072541
               },
               "southwest" : {
                  "lat" : 38.8154809,
                  "lng" : 29.808065
               }
            }
         },
         "place_id" : "ChIJlfKAibrPyBQR9nJeT5iT3Jk",
         "types" : [ "administrative_area_level_2", "political" ]
      },
      {
         "address_components" : [
            {
               "long_name" : "43820",
               "short_name" : "43820",
               "types" : [ "postal_code" ]
            },
            {
               "long_name" : "Dumlupınar",
               "short_name" : "Dumlupınar",
               "types" : [ "administrative_area_level_2", "political" ]
            },
            {
               "long_name" : "Kütahya",
               "short_name" : "Kütahya",
               "types" : [ "administrative_area_level_1", "political" ]
            },
            {
               "long_name" : "Turkey",
               "short_name" : "TR",
               "types" : [ "country", "political" ]
            }
         ],
         "formatted_address" : "43820 Dumlupınar/Kütahya, Turkey",
         "geometry" : {
            "bounds" : {
               "northeast" : {
                  "lat" : 39.0131551,
                  "lng" : 30.2072541
               },
               "southwest" : {
                  "lat" : 38.8154809,
                  "lng" : 29.808065
               }
            },
            "location" : {
               "lat" : 38.9245585,
               "lng" : 29.9971769
            },
            "location_type" : "APPROXIMATE",
            "viewport" : {
               "northeast" : {
                  "lat" : 39.0131551,
                  "lng" : 30.2072541
               },
               "southwest" : {
                  "lat" : 38.8154809,
                  "lng" : 29.808065
               }
            }
         },
         "place_id" : "ChIJdQlfMTLGyBQRPq2ZKIqH4Kw",
         "types" : [ "postal_code" ]
      },
      {
         "address_components" : [
            {
               "long_name" : "Kütahya",
               "short_name" : "Kütahya",
               "types" : [ "administrative_area_level_1", "political" ]
            },
            {
               "long_name" : "Turkey",
               "short_name" : "TR",
               "types" : [ "country", "political" ]
            }
         ],
         "formatted_address" : "Kütahya, Turkey",
         "geometry" : {
            "bounds" : {
               "northeast" : {
                  "lat" : 39.9070431,
                  "lng" : 30.4621429
               },
               "southwest" : {
                  "lat" : 38.79054,
                  "lng" : 28.603224
               }
            },
            "location" : {
               "lat" : 39.358137,
               "lng" : 29.6035495
            },
            "location_type" : "APPROXIMATE",
            "viewport" : {
               "northeast" : {
                  "lat" : 39.9070431,
                  "lng" : 30.4621429
               },
               "southwest" : {
                  "lat" : 38.79054,
                  "lng" : 28.603224
               }
            }
         },
         "place_id" : "ChIJcd7mch4DyRQR2MtOz3EXbg8",
         "types" : [ "administrative_area_level_1", "political" ]
      },
      {
         "address_components" : [
            {
               "long_name" : "Turkey",
               "short_name" : "TR",
               "types" : [ "country", "political" ]
            }
         ],
         "formatted_address" : "Turkey",
         "geometry" : {
            "bounds" : {
               "northeast" : {
                  "lat" : 42.3666999,
                  "lng" : 44.8178449
               },
               "southwest" : {
                  "lat" : 35.808592,
                  "lng" : 25.5377
               }
            },
            "location" : {
               "lat" : 38.963745,
               "lng" : 35.243322
            },
            "location_type" : "APPROXIMATE",
            "viewport" : {
               "northeast" : {
                  "lat" : 42.3666999,
                  "lng" : 44.8178449
               },
               "southwest" : {
                  "lat" : 35.808592,
                  "lng" : 25.5377
               }
            }
         },
         "place_id" : "ChIJcSZPllwVsBQRKl9iKtTb2UA",
         "types" : [ "country", "political" ]
      }
   ],
   "status" : "OK"
}
